NHSTID,DIVA_NR,Y_KOORD,X_KOORD,CHSTNAME,CNAME,VTYP,HSTTYP,HAFAS_PRIO,LINKTEXT,ZONEN,SYMB_CODE,SYMB_TEXT,LINIEN,E,N,fahrgastza,fahrgast_1,fahrgast_2,fahrgast_3,fahrgast_4,fahrgast_5,fahrgast_6,fahrgast_7,fahrgast_8,fahrgast_9,lng,lat
"8590279","2384",,,"Spreitenbach, Shopping Center",Spreitenbach,Bus,"&nbsp;","0",,"184","2",Bus,"303","2670171","1252599","632","651",632.033534246574959,582.669232876712044,695.580000000000041,641.509999999999991,"2384",SCEN,1214.702767123289959,1337.089999999999918,8.368550763493712,47.420459647278442
"8590275","6462",,,"Spreitenbach, Ikea",Spreitenbach,Bus,"&nbsp;","0",,"184","2",Bus,"303","2670547","1252782","633","652",137.107178082192007,159.620219178082010,153.879999999999995,187.539999999999992,"6462",IKEA,296.727397260274017,341.420000000000016,8.373562043527386,47.422065279223887
"8590205","2789",,,"Bergdietikon, Vorbühl",Bergdietikon,Bus,"&nbsp;","0",,"184","2",Bus,"305,315","2671459","1249188","548","565",21.376684931506901,27.885397260274001,28.495976095617500,36.652470119521901,"2789",VORB,49.262082191780898,65.148446215139401,8.385072971871672,47.389644240375134
"8590536","6694",,,"Dietikon, Weidstrasse",Dietikon,Bus,"&nbsp;","0",,"154","2",Bus,"325","2671666","1250433","593","611",30.703698630137001,18.603123287671199,40.469999999999999,22.180000000000000,"6694",WEST,49.306821917808200,62.649999999999999,8.388013806567590,47.400818715532822
"8590200","425",,,"Bergdietikon, Baltenschwil",Bergdietikon,Bus,"&nbsp;","0",,"184","2",Bus,"305,315","2672021","1249544","552","569",46.394356164383602,63.567890410958903,58.809402390438201,78.461513944223100,"425",DBAL,109.962246575343002,137.270916334660996,8.392573034187158,47.392784747349239
"8590218","990",,,"Dietikon, Gjuchstrasse",Dietikon,Bus,"&nbsp;","0",,"154","2",Bus,"303","2672053","1251227","545","562",515.330547945205012,458.404109589041013,603.549999999999955,532.820000000000050,"990",GJUC,973.734657534246026,1136.369999999999891,8.393267990917206,47.407917342323501
"8590739","1964",,,"Oetwil an der Limmat, Post",Oetwil an der Limmat,Bus,"&nbsp;","0",,"154","2",Bus,"301,N30","2672142","1253441","533","550",191.904526027396997,133.429224657534007,247.412000000000006,170.197000000000003,"1964",OPOS,325.333750684930976,417.608999999999980,8.394804422290916,47.427819138105150
"8590738","1759",,,"Oetwil an der Limmat, Oberdorf",Oetwil an der Limmat,Bus,"&nbsp;","0",,"154","2",Bus,"301","2672389","1253434","536","553",26.367798904109598,82.945264657534295,36.536600000000000,92.001599999999996,"1759",OBDO,109.313063561644000,128.538199999999989,8.398076735425134,47.427729072053246
"8590223","3344",,,"Dietikon, Stadthaus",Dietikon,Bus,"&nbsp;","0",,"154","2",Bus,"305,306,325","2672636","1250636","589","607",160.517917808219011,155.694575342466010,206.280000000000001,183.120000000000005,"3344",DSTA,316.212493150685020,389.399999999999977,8.400895490721563,47.402538147187720
"8590219","1417",,,"Dietikon, Kirchplatz",Dietikon,Bus,"&nbsp;","0",,"154","2",Bus,"305,306,325","2672819","1250905","596","614",7.536465753424660,125.727041095890002,9.890000000000001,147.449999999999989,"1417",KIPL,133.263506849315007,157.340000000000003,8.403363408411488,47.404937191548861
"8590514","1039",,,"Dietikon, Rapidplatz",Dietikon,Bus,"&nbsp;","0",,"154","2",Bus,"309","2672934","1251493","542","559",254.308343013698988,238.534254246574989,324.925200000000018,312.502799999999979,"1039",DRAP,492.842597260273976,637.427999999999997,8.404982743419627,47.410212635095888
"8590618","2982",,,"Geroldswil, Zentrum",Geroldswil,Bus,"&nbsp;","0",,"154","2",Bus,"301,302,304,N30","2673255","1252747","198","206",646.600664109589047,611.916371506849032,772.117937848605948,738.665321115537949,"2982",ZENT,1258.517035616439898,1510.783258964140032,8.409441007942943,47.421454797863483
"8590602","548",,,"Fahrweid, Brunaustrasse",Fahrweid,Bus,"&nbsp;","0",,"154","2",Bus,"301,302,304,N30","2673612","1251969","200","208",221.574107397260008,245.901402739725995,264.533104382470015,294.948494023904004,"548",BRUS,467.475510136985974,559.481598406374019,8.414043546254266,47.414418085819285
"8590837","831",,,"Urdorf, Feldegg",Urdorf,Bus,"&nbsp;","0",,"154","2",Bus,"302,308,311,N30","2674689","1249493","185","193",402.870219178081982,451.906136986301021,492.189999999999998,558.968446215139011,"831",FEGG,854.776356164382946,1051.158446215139975,8.427899618626522,47.392029000546088
"8590802","2631",,,"Schlieren, Talacker-Windegg",Schlieren,Bus,"&nbsp;","0",,"154","2",Bus,"302,308","2676173","1251023","177","185",139.287397260273991,123.938767123288002,158.398486055776999,138.332310756971992,"2631",TAWI,263.226164383561979,296.730796812749020,8.447814019611545,47.405619052091623
"8591366","2771",,,"Zürich, Sihlcity Nord",Zürich,"Bus,Tram,Trolleybus","&nbsp;","2",,"110","3",Bus Tram,"5,13,17,72,N12","2681920","1246034","151","158",6594.315726027400160,6510.185068493149629,7531.077768924299562,7449.634780876490368,"2771",SIHN,13104.500794520599811,14980.712549800800844,8.523031312376428,47.360061327995339
"8591285","1705",,,"Zürich, Neuaffoltern",Zürich,"Bus,Trolleybus","&nbsp;","0",,"110","2",Bus,"32,61,62,N1","2681991","1251793","58","63",1784.849808219179977,1672.521287671230084,2020.635697211160050,1868.008486055779940,"1705",NEUA,3457.371095890409833,3888.644183266940217,8.525026389803312,47.411845275902387
"8591323","2104",,,"Zürich, Rosengartenstrasse",Zürich,"Bus,Trolleybus","&nbsp;","0",,"110","2",Bus,"33,46,72,83,N1,N7,N8","2682051","1249846","165","172",2977.134740547950059,2865.468262739730108,3425.025937450200217,3262.232931872510107,"2104",ROSE,5842.603003287679712,6687.258869322709870,8.525464021661350,47.394327821381459
"8591079","478",,,"Zürich, Bezirksgebäude",Zürich,"Bus,Tram","&nbsp;","2",,"110","3",Bus Tram,"2,3,N14","2682089","1247605","206","215",2428.100547945210110,2701.160712328769932,2730.902868525899976,3014.787729083670001,"478",BEZI,5129.261260273980042,5745.690597609570432,8.525556170703764,47.374168954234428
"8591205","1865",,,"Zürich, Hürlimannplatz",Zürich,Bus,"&nbsp;","0",,"110","2",Bus,"66","2682177","1246594","468","480",59.552328767123299,87.079808219178105,86.599999999999994,126.629999999999995,"1865",HURL,146.632136986300992,213.229999999999990,8.526535645983865,47.365065653578789
"8591425","2858",,,"Zürich, Weihersteig",Zürich,Bus,"&nbsp;","0",,"110","2",Bus,"69","2682287","1250246","476","488",103.803178082192005,152.234876712328997,127.422629482071997,194.547609561753006,"2858",WEIH,256.038054794520974,321.970239043825018,8.528663245503058,47.397895712947573
"8590472","6437",,,"Adliswil, Grüt",Adliswil,Bus,"&nbsp;","0",,"150","2",Bus,"184,N12","2682427","1241858","256","267",88.795780821917802,126.527561643835995,109.719999999999999,157.419999999999987,"6437",GRUT,215.323342465753996,267.139999999999986,8.528973764881433,47.322441361464683
"8591257","1557",,,"Zürich, Limmatplatz",Zürich,"Bus,Tram,Trolleybus","&nbsp;","2",,"110","3",Bus Tram,"4,13,17,32,N1,N4,N5,N7,N13","2682531","1248771","231","241",14271.745698630100378,13969.919369863000611,16377.375697211200531,16046.669760956199752,"1557",LIMM,28241.665068493100989,32424.045458167398465,8.531622912898955,47.384600012653038
"8591217","1356",,,"Zürich, Kalchbühlweg",Zürich,Bus,"&nbsp;","0",,"110","2",Bus,"66","2682591","1243872","465","477",129.220849315067994,96.897479452054796,152.750000000000000,116.260000000000005,"1356",KALB,226.118328767122989,269.009999999999991,8.531513892651988,47.340533753424474
"8591100","547",,,"Zürich, Brunaustrasse",Zürich,"Bus,Tram","&nbsp;","2",,"110","3",Bus Tram,"7,N15","2682620","1245607","307","319",1058.857999999999947,1137.904931506850062,1189.107609561749996,1273.291553784860071,"547",BRUN,2196.762931506849782,2462.399163346609839,8.532217514795436,47.356133761832645
"8590765","1542",,,"Rümlang, Letten",Rümlang,Bus,"&nbsp;","0",,"121","2",Bus,"742,N6","2682693","1254770","744","766",0.000000000000000,0.166684931506849,0.000000000000000,0.000000000000000,"1542",RLET07,0.166684931506849,0.000000000000000,8.534877893320695,47.438530355516683
"8591430","2889",,,"Zürich, Widmerstrasse",Zürich,Bus,"&nbsp;","0",,"110","2",Bus,"66","2682701","1243456","466","478",264.244739726026978,241.187643835616001,323.449999999999989,288.850000000000023,"2889",WIDM,505.432383561643007,612.299999999999955,8.532892526332859,47.336778678855723
"8591291","1745",,,"Zürich, Nordstrasse",Zürich,Trolleybus,"&nbsp;","0",,"110","2",Bus,"32,46","2682868","1249190","404","416",1350.518383561639894,1515.889013698629924,1500.613107569719887,1673.757729083670029,"1745",NORS,2866.407397260270045,3174.370836653390143,8.536162991482058,47.388325920510461
"8591237","1468",,,"Zürich, Kronenstrasse",Zürich,Tram,"&nbsp;","2",,"110","5",Tram,"11,14","2683106","1249166","104","110",2273.232849315069870,2503.389643835620063,2677.136374501989849,2965.805976095619826,"1468",KRON,4776.622493150690389,5642.942350597610130,8.539310290671454,47.388080098874717
"8591071","435",,,"Zürich, Beckenhof",Zürich,Tram,"&nbsp;","2",,"110","5",Tram,"11,14","2683198","1248723","105","111",1159.716493150679980,1266.554219178080075,1442.483426294819992,1563.832788844619927,"435",BECK,2426.270712328760055,3006.316215139439919,8.540446234485755,47.384084438038947
"8591339","2164",,,"Zürich, Scheuchzerstrasse",Zürich,Trolleybus,"&nbsp;","0",,"110","2",Bus,"33","2683459","1249139","335","347",638.140576712328993,670.509395616438042,732.023308764939998,770.085137051793026,"2164",SCHZ,1308.649972328769991,1502.108445816729954,8.543979893806991,47.387792652231802
"8580449","3034",,,"Zürich, Bahnhof Oerlikon",Zürich,"Bus,Tram","&nbsp;","2",,"110","3",Bus Tram,"11,61,62,94,768,781,787","2683489","1251772","55","60",10909.796684931499840,10135.312657534199388,12368.469362549800280,11462.716494023899941,"3034",BOER,21045.109342465701047,23831.185856573698402,8.544868746143017,47.411468189600342
"8591406","1334",,,"Zürich, Universität Irchel",Zürich,Tram,"&nbsp;","2",,"110","5",Tram,"9,10","2683510","1250070","123","130",1852.455999999999904,2268.390465753419903,2421.402948207170084,2981.573067729079867,"1334",IRCH,4120.846465753419579,5402.976015936250406,8.544829072592403,47.396158964120190
"8590685","2154",,,"Kilchberg ZH, Sanatorium",Kilchberg ZH,Bus,"&nbsp;","0",,"150","2",Bus,"161,N15","2683590","1242393","288","299",101.216410958904007,92.755506849315097,122.870000000000005,108.219999999999999,"2154",SANK,193.971917808218990,231.090000000000003,8.544455676313868,47.327106516217320
"8591332","2151",,,"Zürich, Salersteig",Zürich,"Bus,Tram","&nbsp;","2",,"110","3",Bus Tram,"10,14,N6","2683770","1251177","386","398",1341.117972602740110,1447.217616438359983,1534.413625498010106,1667.153904382470046,"2151",SALE,2788.335589041099865,3201.567529880479924,8.548480052555256,47.406081511630198
"8590673","1391",,,"Kilchberg ZH, Bahnhof",Kilchberg ZH,Bus,"&nbsp;","0",,"150","2",Bus,"162,163","2683868","1242094","702","724",261.191808219177972,104.851835616437995,350.389999999999986,139.479999999999990,"1391",BKIL,366.043643835616024,489.870000000000005,8.548076986800616,47.324382169771987
"8591239","1472",,,"Zürich, Kunsthaus",Zürich,"Tram,Trolleybus","&nbsp;","2",,"110","3",Bus Tram,"3,5,9,31","2683876","1247215","132","139",6286.815010410959985,6074.947997260270313,7761.992704382470038,7410.530513944219820,"1472",KUNS,12361.763007671199375,15172.523218326699862,8.549141430698867,47.370436500973447
"8590791","935",,,"Schlieren, Gasometerbrücke",Schlieren,"Bus,Trolleybus","&nbsp;","0",,"154","2",Bus,"31,N2","2677128","1250158","358","370",1052.461084383560092,1148.210980547949930,1283.181019123509941,1402.937202788840068,"935",GASO,2200.672064931509794,2686.118221912349782,8.460315868531294,47.397728598336023
"8591044","92",,,"Zürich, Am Suteracher",Zürich,Bus,"&nbsp;","0",,"110","2",Bus,"35","2677852","1249413","620","639",179.668191780822013,193.099835616438014,213.610000000000014,228.300000000000011,"92",AMSU,372.768027397260028,441.910000000000025,8.469775711830405,47.390943323597909
"8591116","716",,,"Zürich, Dunkelhölzli",Zürich,Bus,"&nbsp;","0",,"110","2",Bus,"35,67,78,N13","2677876","1249185","29","34",703.558794520547963,748.330657534247052,806.820000000000050,842.049999999999955,"716",DUNK,1451.889452054799904,1648.869999999999891,8.470053867076640,47.388889983307777
"8591130","852",,,"Zürich, Feusisbergli",Zürich,Bus,"&nbsp;","0",,"110","2",Bus,"35","2677940","1249606","619","638",97.832383561643795,87.075506849315104,117.680000000000007,101.560000000000002,"852",FEUS,184.907890410958998,219.240000000000009,8.470974764695789,47.392668650099296
"8591310","2033",,,"Zürich, Rautihalde",Zürich,Bus,"&nbsp;","0",,"110","2",Bus,"35,67,78,N13","2678186","1248887","31","36",471.607123287671016,617.384876712328946,528.600000000000023,689.980000000000018,"2033",RAUH,1088.991999999999962,1218.579999999999927,8.474107112067912,47.386173220996405
"8591428","2872",,,"Zürich, Werdhölzli",Zürich,"Bus,Tram","&nbsp;","2",,"110","3",Bus Tram,"17,307","2678766","1250191","228","238",489.219479452054998,486.759589041095978,559.682988047808976,553.318844621514017,"2872",WERD,975.979068493150976,1113.001832669320038,8.482017237033803,47.397831544742537
"8591436","6015",,,"Zürich, Winzerstrasse Süd",Zürich,Bus,"&nbsp;","0",,"110","2",Bus,"80,89,304,308","2679068","1250811","78","83",683.899835616438054,633.137041095890027,789.584940239044045,719.822231075697005,"6015",WINS,1317.036876712330013,1509.407171314740026,8.486126899742132,47.403371258903256
"8591434","2934",,,"Zürich, Winzerhalde",Zürich,Bus,"&nbsp;","0",,"110","2",Bus,"80,89,304,308","2679710","1250451","76","81",627.157041095890008,467.634630136986004,682.640478087648944,499.738565737051999,"2934",WINH,1094.791671232879935,1182.379043824699920,8.494566997644640,47.400056259930963
"8591441","2998",,,"Zürich, Zielweg",Zürich,Bus,"&nbsp;","0",,"110","2",Bus,"73","2680000","1245870","684","703",24.829671232876699,52.610794520547898,28.890000000000001,62.240000000000002,"2998",ZIEL,77.440465753424604,91.129999999999995,8.497589378293410,47.358822230410013
"8591138","883",,,"Zürich, Freihofstrasse",Zürich,Tram,"&nbsp;","2",,"110","5",Tram,"2","2680098","1248585","216","225",2530.605753424660179,2348.713095890409932,2908.546852589639911,2689.655776892429913,"883",FREI,4879.318849315070111,5598.202629482069824,8.499372208482908,47.383227529846202
"8591390","2638",,,"Zürich, Talwiesenstrasse",Zürich,"Bus,Tram","&nbsp;","2",,"110","3",Bus Tram,"9,14,N5","2680894","1247119","136","143",2119.526356164380104,2213.398821917809983,2407.296095617530227,2521.845697211159859,"2638",TALW,4332.925178082189632,4929.141792828690086,8.509647471522419,47.369945934241514
"8591131","857",,,"Zürich, Fischerweg",Zürich,"Bus,Tram","&nbsp;","2",,"110","3",Bus Tram,"8,17,N13","2681045","1249748","222","232",1547.702136986300047,1503.539260273970058,1943.837290836650027,1894.036055776889953,"857",FWEG,3051.241397260269878,3837.873346613539979,8.512122564483068,47.393571015981955
"8591118","767",,,"Zürich, Einfangstrasse",Zürich,"Bus,Trolleybus","&nbsp;","0",,"110","2",Bus,"32,61,62,N1","2681072","1252209","60","65",1552.298027397260057,1509.434493150680055,1764.389322709160069,1708.156055776890071,"767",EINF,3061.732520547940112,3472.545378486050140,8.512926389807594,47.415700277202525
"8591177","1122",,,"Zürich, Hardplatz",Zürich,"Bus,Tram,Trolleybus","&nbsp;","2",,"110","3",Bus Tram,"8,31,33,72,83,N2,N5,N8","2681244","1248502","161","168",5603.373433972599742,5195.732208493150210,6373.818340239039571,5892.987235458170289,"1122",HARP,10799.105642465799974,12266.805575697200766,8.514531862707935,47.382340758972077
"8591312","2035",,,"Zürich, Rebbergsteig",Zürich,"Bus,Trolleybus","&nbsp;","0",,"110","2",Bus,"46,N8","2681250","1250135","528","545",181.819999999999993,233.063616438356007,205.957768924302997,262.333466135458025,"2035",REBE,414.883616438356000,468.291235059760993,8.514907894268431,47.397026189251065
"8591270","1615",,,"Zürich, Marbachweg",Zürich,Bus,"&nbsp;","0",,"110","2",Bus,"70,N12","2681387","1242723","602","621",397.526684931507020,356.461506849315015,445.639999999999986,403.790000000000020,"1615",MARB,753.988191780822035,849.429999999999950,8.515375331591622,47.330349919602362
"8530473","2090",,,"Zürich, Rigiblick",Zürich,"Bus,Standseilbahn","&nbsp;","0",,"110","9",Bergbahn Bus,"23,39","2684172","1249098","509","525",23.050931506849299,29.966328767123301,23.090000000000000,28.210000000000001,"2090",BERG,53.017260273972603,51.299999999999997,8.553414091068516,47.387333210995102
"8590784","2852",,,"Rüschlikon, Weidstrasse",Rüschlikon,Bus,"&nbsp;","0",,"150","2",Bus,"165,N15","2684265","1240023","270","281",34.295890410958897,45.715315068493098,42.180000000000000,53.509999999999998,"2852",WEID,80.011205479452002,95.689999999999998,8.552939003474837,47.305706015103432
"8591412","2788",,,"Zürich, Voltastrasse",Zürich,"Bus,Tram","&nbsp;","2",,"110","3",Bus Tram,"5,6,N17","2684272","1247936","311","323",483.110164383561994,647.935397260274044,550.029123505976031,771.895697211155039,"2788",VOLT,1131.045561643840074,1321.924820717129933,8.554519495596972,47.376870182703641
"8590620","994",,,"Glattbrugg, Bahnhof",Glattbrugg,"Bus,Tram","&nbsp;","2",,"121","3",Bus Tram,"10,12,761,762,764","2684552","1253911","572","590",2350.405260273969816,2206.660821917810154,2931.760000000000218,2754.380000000000109,"994",BGLA07,4557.066082191779969,5686.140000000000327,8.559356545287939,47.430569024562622
"8591119","788",,,"Zürich, Englischviertelstrasse",Zürich,Tram,"&nbsp;","2",,"110","5",Tram,"8","2684564","1246813","400","412",667.571643835615987,733.618575342465988,760.715737051792985,832.923187250995966,"788",ENGV,1401.190219178080042,1593.638924302789974,8.558173371381706,47.366733242639683
"8573244","2758",,,"Glattbrugg, Unterriet",Glattbrugg,"Bus,Tram","&nbsp;","2",,"121","3",Bus Tram,"10,12,510","2684726","1254699","574","592",1188.301260273970001,1166.788328767119992,1420.420000000000073,1418.160000000000082,"2758",UNTR07,2355.089589041090221,2838.579999999999927,8.561812085249954,47.437633265570099
"8591196","3469",,,"Zürich, Hofstrasse",Zürich,Trolleybus,"&nbsp;","0",,"110","2",Bus,"33","2684809","1247554","343","355",304.511475890411020,427.861324109589020,344.566170119521985,503.979335856573982,"3469",HOFS,732.372799999999984,848.545505976096024,8.561556875223369,47.373365829225911
"8591440","2956",,,"Zürich, Wonnebergstrasse",Zürich,Bus,"&nbsp;","0",,"110","2",Bus,"77","2685220","1245167","24","28",83.798109589041104,105.409397260274005,99.189999999999998,122.750000000000000,"2956",WONE,189.207506849314996,221.939999999999998,8.566543798478028,47.351845656716947
"8591132","859",,,"Zürich, Flobotstrasse",Zürich,Bus,"&nbsp;","0",,"110","2",Bus,"39","2685287","1248363","646","665",5.487835616438360,7.110383561643840,6.060000000000000,6.790000000000000,"859",FLOB,12.598219178082200,12.850000000000000,8.568039226989400,47.380579728046797
"8591148","901",,,"Zürich, Friedrichstrasse",Zürich,Bus,"&nbsp;","0",,"110","2",Bus,"75,N11","2685327","1250961","328","340",181.120273972603002,263.918410958904019,201.930039840636994,295.801593625498015,"901",FRDR,445.038684931507021,497.731633466135008,8.569064445267101,47.403939072661693
"8576202","824",,,"Zollikon, Felbenstrasse",Zollikon,Bus,"&nbsp;","0",,"140","2",Bus,"910,912,916,N18","2685467","1244210","3","6",227.341013698630007,204.853753424658009,281.009999999999991,248.840000000000003,"824",FBST,432.194767123287988,529.850000000000023,8.569629934541345,47.343207000661110
"8594553","6808",,,"Opfikon, Schwimmbad",Opfikon,Bus,"&nbsp;","0",,"121","2",Bus,"759,N7","2685467","1254157","462","474",0.000000000000000,0.840547945205479,0.000000000000000,0.000000000000000,"6808",OSCH07,0.840547945205479,0.000000000000000,8.571530218739492,47.432663171432040
"8591442","3005",,,"Zürich, Zoo",Zürich,"Bus,Tram","&nbsp;","2",,"110","3",Bus Tram,"6,39,E,N17","2685551","1248477","422","434",2537.685178082189850,2703.379671232879900,2514.427131474099951,2697.507011952190169,"3005",ZOO,5241.064849315070205,5211.934143426289666,8.571556559418267,47.381570736789051
"8591089","508",,,"Zürich, Bleulerstrasse",Zürich,Bus,"&nbsp;","0",,"110","2",Bus,"77","2685609","1244653","28","32",170.085972602739986,103.405013698630000,200.840000000000003,120.609999999999999,"508",BLEU,273.490986301370015,321.449999999999989,8.571593427222417,47.347172652524627
"8591211","1311",,,"Zürich, Im Klösterli",Zürich,Bus,"&nbsp;","0",,"110","2",Bus,"39,E","2685952","1248823","647","666",30.957698630136999,17.574438356164400,28.137689243027900,19.170000000000002,"1311",IKLO,48.532136986301403,47.307689243027902,8.576932626684759,47.384630220616728
"8591443","4",,,"Zürich, Zoo/Forrenweid",Zürich,Bus,"&nbsp;","0",,"110","2",Bus,"751","2686046","1248365","429","441",40.583780821917799,67.640100821917798,40.899999999999999,65.936800000000005,"4",ZOOF,108.223881643835995,106.836799999999997,8.578089271142026,47.380499025451378
"8591264","1590",,,"Zürich, Luegisland",Zürich,"Bus,Tram","&nbsp;","2",,"110","3",Bus Tram,"9,N11","2686254","1251205","142","149",1211.092767123290059,1106.449315068490023,1395.080159362549921,1258.648127490039997,"1590",LUEG,2317.542082191780082,2653.728286852589918,8.581390987740580,47.406012657104739
"8590702","1106",,,"Küsnacht ZH, Hallenbad",Küsnacht ZH,Bus,"&nbsp;","0",,"140","2",Bus,"918","2686684","1240932","696","715",11.329315068493200,34.000383561643801,14.600000000000000,44.740000000000002,"1106",HABA,45.329698630137003,59.340000000000003,8.585098760970485,47.313567688657557
"8590703","1779",,,"Küsnacht ZH, Oberfeld",Küsnacht ZH,Bus,"&nbsp;","0",,"140","2",Bus,"918","2686964","1240889","698","717",40.898054794520498,13.925506849315100,52.850000000000001,17.989999999999998,"1779",OBFE,54.823561643835603,70.840000000000003,8.588793143444160,47.313144116728182
"8591072","455",,,"Zürich, Berghaldenstrasse",Zürich,"Bus,Trolleybus","&nbsp;","0",,"110","2",Bus,"31,N16,N19","2686986","1245949","369","381",205.304399178082008,393.005724931507018,228.207871314740999,432.193145816733022,"455",BERH,598.310124109588969,660.401017131473964,8.590066003697142,47.358647776170486
"8576211","2327",,,"Küsnacht ZH, Schübel",Küsnacht ZH,Bus,"&nbsp;","0",,"140","2",Bus,"912,919,N18","2687029","1241869","12","15",114.579342465753001,138.969780821917993,140.460000000000008,168.770000000000010,"2327",SUEB,253.549123287670994,309.230000000000018,8.589842835792163,47.321949114965513
"8591261","1584",,,"Zürich, Loorenstrasse",Zürich,"Bus,Trolleybus","&nbsp;","0",,"110","2",Bus,"31,701,703,704,N16,N19","2687321","1246089","370","382",1361.732075342469898,1296.670358630140072,1566.698994023900013,1490.220680876489951,"1584",LOOR,2658.402433972610197,3056.919674900389964,8.594527081430037,47.359862543972504
"8591903","3756",,,"Zollikerberg, Spital",Zollikerberg,Bus,"&nbsp;","0",,"140","2",Bus,"91","2687454","1244811","649","668",39.299287671232896,43.439945205479503,48.399999999999999,52.399999999999999,"3756",SZOL,82.739232876712407,100.799999999999997,8.596037885537227,47.348351431587552
"8594198","6735",,,"Wallisellen, Glatt (Tram)",Wallisellen,Tram,"&nbsp;","2",,"121","5",Tram,"12","2687507","1251592","580","598",1254.375287671229898,1394.730739726029924,1462.940000000000055,1637.900000000000091,"6735",WGLA07,2649.106027397259822,3100.840000000000146,8.598065152279398,47.409327707799669
"8591024","3826",,,"Zollikerberg, Hasenbart",Zollikerberg,Bus,"&nbsp;","0",,"140","2",Bus,"91","2687578","1245009","650","669",21.362739726027399,12.956328767123299,26.800000000000001,16.399999999999999,"3826",HASE,34.319068493150702,43.200000000000003,8.597717432779122,47.350115651718646
"8596113","6986",,,"Dübendorf, Hochbord Süd",Dübendorf,Bus,"&nbsp;","0",,"121","2",Bus,"760,E","2687713","1250470","681","700",0.000000000000000,12.877835616438400,0.000000000000000,18.726733067729100,"6986",DHOS07,12.877835616438400,18.726733067729100,8.600574068927976,47.399209945307739
"8590588","6346",,,"Dübendorf, Sonnental",Dübendorf,Bus,"&nbsp;","0",,"121","2",Bus,"743,744,745,751,752,754,N17","2687952","1250054","424","436",184.671763342465994,138.661489369863006,230.778619999999989,165.548620000000000,"6346",DSON,323.333252712328999,396.327240000000018,8.603657863929454,47.395436900569415
"8590592","2838",,,"Dübendorf, Wasserfurren",Dübendorf,Bus,"&nbsp;","0",,"121","2",Bus,"743,744,745,754,N17","2688526","1249901","433","445",116.090931506849003,163.553013698629996,146.530000000000001,197.250000000000000,"2838",DWAS,279.643945205478985,343.779999999999973,8.611229790982337,47.393984043053791
"8590554","3478",,,"Dübendorf, City Center",Dübendorf,Bus,"&nbsp;","0",,"121","2",Bus,"752,759,N17","2688918","1250242","732","754",0.069808219178082,0.883287671232877,0.000000000000000,0.000000000000000,"3478",CITC,0.953095890410959,0.000000000000000,8.616489194624316,47.396997916121784
"8591025","1792",,,"Zollikerberg, Oberhueb",Zollikerberg,Bus,"&nbsp;","0",,"140","2",Bus,"917","2689117","1244418","701","722",17.879452054794498,13.478356164383600,26.000000000000000,19.600000000000001,"1792",OBHU,31.357808219178100,45.600000000000001,8.617965451483576,47.344594344548902
"8590753","2622",,,"Pfaffhausen, Sängglen",Pfaffhausen,Bus,"&nbsp;","0",,"121","2",Bus,"704,N19","2689589","1246900","560","578",72.641156164383602,66.544356164383601,83.742000000000004,77.650000000000006,"2622",SAGG,139.185512328767004,161.391999999999996,8.624707213916778,47.366851690216045
"8590610","2335",,,"Fällanden, Schützenhaus",Fällanden,Bus,"&nbsp;","0",,"121","2",Bus,"704,705,744,N19","2690173","1247106","499","512",27.461616438356199,41.784273972602698,35.170000000000002,51.820000000000000,"2335",SHUA,69.245890410958907,86.989999999999995,8.632479176824198,47.368624642955339
"8590606","947",,,"Fällanden, Gemeindehaus",Fällanden,Bus,"&nbsp;","0",,"121","2",Bus,"704,705,743,744,745,N19","2690745","1247466","439","451",812.342915068492971,661.354915068493028,983.864000000000033,785.683999999999969,"947",FAEL,1473.697830136989978,1769.548000000000002,8.640124020062254,47.371783678248427
"8590806","684",,,"Schwerzenbach ZH, Dorf",Schwerzenbach ZH,Bus,"&nbsp;","0",,"121","2",Bus,"704,705","2691627","1248449","557","575",54.593736986301401,51.399939726027398,67.334000000000003,58.417999999999999,"684",DORS,105.993676712329005,125.751999999999995,8.652001435500726,47.380501912082870
"8590241","757",,,"Kindhausen AG, Eichholz",Kindhausen AG,Bus,"&nbsp;","0",,"184","2",Bus,"305,315","2671101","1249704","547","564",40.975013698630100,33.094219178082199,52.227649402390398,42.642669322709203,"757",EIHH,74.069232876712306,94.870318725099594,8.380413856365502,47.394323649975355
"8591893","6693",,,"Dietikon, Gyrhalden",Dietikon,Bus,"&nbsp;","0",,"154","2",Bus,"325","2671922","1250415","592","610",121.750575342466007,107.514931506848995,139.479999999999990,124.310000000000002,"6693",DGYR,229.265506849314988,263.790000000000020,8.391401917321430,47.400628929783906
"8590520","2399",,,"Dietikon, Moosmatt",Dietikon,Bus,"&nbsp;","0",,"154","2",Bus,"309","2672082","1252509","538","555",307.638277808219016,352.746847123287978,391.981400000000008,447.399200000000008,"2399",DMOO,660.385124931506994,839.380599999999959,8.393858907128513,47.419443812152124
"8590521","1758",,,"Dietikon, Oberdorf",Dietikon,Bus,"&nbsp;","0",,"154","2",Bus,"306,325","2672296","1250543","590","608",225.907369863013997,161.957698630137003,285.829999999999984,200.699999999999989,"1758",ODIE,387.865068493151000,486.529999999999973,8.396376634977395,47.401739156977641
"8587020","657",,,"Dietikon, Bahnhof",Dietikon,Bus,"&nbsp;","0",,"154","2",Bus,"301,302,303,304,305,306,309,311,314,325,N30","2672905","1251006","204","212",6238.409855890409744,5704.350271780819639,7552.094411952190057,6934.289200000000164,"657",BDIE,11942.760127671199371,14486.383611952200226,8.404519127753566,47.405836020255741
"8590617","2869",,,"Geroldswil, Welbrig",Geroldswil,Bus,"&nbsp;","0",,"154","2",Bus,"302,304,N30","2673976","1252388","196","204",38.907424657534200,35.987479452054799,46.462111553784901,42.021633466135498,"2869",WELB,74.894904109589007,88.483745019920406,8.418935692545267,47.418145546168574
"8590800","2436",,,"Schlieren, Spital Limmattal",Schlieren,Bus,"&nbsp;","0",,"154","2",Bus,"302,308,311,N30","2674828","1249560","184","192",325.639917808219025,305.673150684930988,399.102430278884015,377.791155378485996,"2436",SPLI,631.313068493150013,776.893585657369954,8.429751720424687,47.392615790663669
"8573718","501",,,"Birmensdorf ZH, Bahnhof",Birmensdorf ZH,Bus,"&nbsp;","0",,"154","2",Bus,"215,227,245,314,350,N22,N23","2675560","1245603","489","501",128.111912876712012,92.556146849315098,186.298200000000008,134.593600000000009,"501",BIRMBHF,220.668059726026996,320.891799999999989,8.438778389042652,47.356944860340242
"8590805","2236",,,"Schlieren, Zentrum/Bahnhof",Schlieren,"Bus,Trolleybus","&nbsp;","0",,"154","2",Bus,"31,302,303,308,N2,N30","2676230","1250157","180","188",1114.707653150690021,1535.491792602739906,1343.633758565739981,1786.825794023900016,"2236",SCHL,2650.199445753430155,3130.459552589640225,8.448421486071759,47.397824141413047
"8590832","743",,,"Unterengstringen, Eckstein",Unterengstringen,Bus,"&nbsp;","0",,"154","2",Bus,"302,308","2676258","1251565","175","183",232.809643835615987,214.139123287670998,264.514820717130988,244.779840637450008,"743",ECKS,446.948767123286984,509.294661354581024,8.449032478933178,47.410483647940787
"8590787","6234",,,"Schlieren, Bahnhof Nord",Schlieren,Bus,"&nbsp;","0",,"154","2",Bus,"201,307","2676262","1250515","485","497",40.114027397260301,44.868328767123302,52.579999999999998,58.060000000000002,"6234",SCHN,84.982356164383603,110.640000000000001,8.448906381084830,47.401040089568504
"8591269","1614",,,"Zürich, Manesseplatz",Zürich,"Bus,Trolleybus","&nbsp;","0",,"110","2",Bus,"72,76,N5","2681806","1246639","150","157",1596.541589041099996,1675.290219178079951,1926.069561752990012,2023.561952191239925,"1614",MANS,3271.831808219179948,3949.631513944229937,8.521632963322990,47.365516512739859
"8580522","799",,,"Zürich, Escher-Wyss-Platz",Zürich,"Bus,Tram,Trolleybus","&nbsp;","2",,"110","3",Bus Tram,"4,8,13,17,33,72,83,N1,N4,N5,N7,N8,N13,N78","2681874","1249415","164","171",9059.160733698630793,8984.600316164380274,10706.268995219099452,10614.191894023899295,"799",EWYS,18043.761049862998334,21320.460889243000565,8.523040908938022,47.390473712927829
"8591052","1234",,,"Zürich, Bäckeranlage",Zürich,"Bus,Tram,Trolleybus","&nbsp;","2",,"110","3",Bus Tram,"8,31,N2,N8","2681896","1248103","352","364",2276.974679726029990,2427.106053972599966,2547.103458565739857,2663.381791633470129,"1234",BANL,4704.080733698629956,5210.485250199209986,8.523092126237120,47.378671678217493
"8591219","1358",,,"Zürich, Kanonengasse",Zürich,"Bus,Trolleybus","&nbsp;","0",,"110","2",Bus,"31,N2,N8","2682441","1248088","350","362",1082.946820821920028,1232.239435616440005,1211.174261354580040,1366.351808764939960,"1358",KANO,2315.186256438360033,2577.526070119520227,8.530305326221377,47.378468812085927
"8591106","586",,,"Zürich, Butzenstrasse",Zürich,"Bus,Tram","&nbsp;","2",,"110","3",Bus Tram,"7,70,184,185,N12","2682499","1243968","252","263",1694.073945205479959,1756.499561643840025,1932.513984063750058,1978.586693227090109,"586",BUTZ,3450.573506849319983,3911.100677290839940,8.530314328034509,47.341408644637809
"8591251","1547",,,"Zürich, Lettenstrasse",Zürich,Trolleybus,"&nbsp;","0",,"110","2",Bus,"46","2682606","1249436","531","548",535.796849315068016,598.701041095889991,609.250318725099987,671.649402390438013,"1547",LETT,1134.497890410960053,1280.899721115539933,8.532738829849897,47.390571187689602
"8591101","564",,,"Zürich, Bucheggplatz",Zürich,"Bus,Tram,Trolleybus","&nbsp;","2",,"110","3",Bus Tram,"11,15,32,40,69,72,83,N1,N7","2682635","1250304","101","107",13202.280246575299316,14075.611452054799884,15332.578286852600286,16283.366772908400890,"564",BUCH,27277.891698630101018,31615.945059761001176,8.533283247999080,47.398373756862149
"8591095","530",,,"Zürich, Brandschenkestrasse",Zürich,Bus,"&nbsp;","0",,"110","2",Bus,"66","2682643","1247067","469","481",35.470082191780797,53.267013698630102,51.579999999999998,77.459999999999994,"530",BRAN,88.737095890410899,129.039999999999992,8.532791352635609,47.369261262667429
"8591292","1753",,,"Zürich, Nürenbergstrasse",Zürich,Trolleybus,"&nbsp;","0",,"110","2",Bus,"33","2682656","1249624","333","345",358.599295616437985,349.585610410959021,435.271047410359017,418.779114741035983,"1753",NUER,708.184906027397005,854.050162151395057,8.533435730404140,47.392255662513598
"8591367","1366",,,"Zürich, Sihlpost / HB",Zürich,"Bus,Tram,Trolleybus","&nbsp;","2",,"110","3",Bus Tram,"3,14,31,N2,N8","2682739","1247828","236","247",5518.944513150679995,6517.629801917810255,6327.579909561750355,7539.743815537850423,"1366",SIHP,12036.574315068499345,13867.323725099600779,8.534202852979536,47.376093182048479
"8590463","148",,,"Adliswil, Badstrasse",Adliswil,Bus,"&nbsp;","0",,"150","2",Bus,"185,N12","2682806","1240880","259","270",113.623780821918004,112.645808219177994,126.700000000000003,127.359999999999999,"148",ABAD01,226.269589041095998,254.060000000000002,8.533806002292504,47.313598216483278
"8591289","3804",,,"Zürich, Neunbrunnen",Zürich,Bus,"&nbsp;","0",,"110","2",Bus,"64,75,N6","2682980","1252334","322","334",465.100082191780984,416.255835616437992,553.904342629482016,502.431075697210986,"3804",NBRU,881.355917808219033,1056.335418326689933,8.538229631541897,47.416586742366434
"8591299","1861",,,"Zürich, Paradeplatz",Zürich,"Bus,Tram","&nbsp;","2",,"110","3",Bus Tram,"2,6,7,8,9,11,13,17,N1,N6,N13,N14","2683104","1247126","110","116",22398.148657534198719,24219.428246575298544,26582.822868525898230,28650.490398406400345,"1861",PARA,46617.576904109497264,55233.313266932302213,8.538904994765725,47.369733898762874
"8591327","2113",,,"Zürich, Rudolf-Brun-Brücke",Zürich,Tram,"&nbsp;","2",,"110","5",Tram,"4,15","2683401","1247599","377","389",2285.516547945209823,2215.795178082189977,2500.069163346609912,2479.772270916329944,"2113",RBRU,4501.311726027400255,4979.841434262940311,8.542924817675845,47.373950243003463
"8591062","6255",,,"Zürich, Bahnhof Oerlikon Nord",Zürich,Bus,"&nbsp;","0",,"110","2",Bus,"64,80,N7","2683417","1251875","91","96",3781.254849315069805,3248.859013698629951,4389.468127490040388,3762.643346613549966,"6255",BOEN,7030.113863013700211,8152.111474103589899,8.543934081753672,47.412403620226016
"8576193","440",,,"Zürich, Bellevue",Zürich,"Bus,Tram","&nbsp;","2",,"110","3",Bus Tram,"2,4,5,8,9,11,15,912,916,N1,N2,N4,N5,N6,N7,N8,N11,N12,N13,N14,N15,N16,N17,N18,N19","2683575","1246839","19","22",30478.995479452099971,26367.762191780799185,35234.602509960197494,30307.100239043800684,"440",BELL,56846.757671232902794,65541.702749004005454,8.545086538171439,47.367093234181461
"8590775","6448",,,"Rüschlikon, Eggrain",Rüschlikon,Bus,"&nbsp;","0",,"150","2",Bus,"156,165,N15","2683601","1239898","265","276",44.670849315068502,53.434904109588999,53.859999999999999,62.359999999999999,"6448",EGGR,98.105753424657493,116.219999999999999,8.544136209183623,47.304666292714806
"8591386","2598",,,"Zürich, Strickhof",Zürich,Bus,"&nbsp;","0",,"110","2",Bus,"39","2683604","1249782","640","659",12.272027397260301,11.380520547945199,11.789999999999999,13.390000000000001,"2598",STRI,23.652547945205502,25.180000000000000,8.546020232476701,47.393556968088149
"8590671","118",,,"Kilchberg ZH, Auf Brunnen",Kilchberg ZH,Bus,"&nbsp;","0",,"150","2",Bus,"161","2683701","1241468","285","296",61.951506849315102,95.012465753424706,75.140000000000001,114.370000000000005,"118",AUFB,156.963972602740000,189.509999999999991,8.545751288359821,47.318773452406774
"8590782","3187",,,"Rüschlikon, Säumerstrasse",Rüschlikon,Bus,"&nbsp;","0",,"150","2",Bus,"165,N15","2683749","1240283","267","278",121.946356164383999,143.761643835616013,167.180000000000007,192.979999999999990,"3187",RSAU,265.708000000000027,360.160000000000025,8.546164898953604,47.308110036198251
"8591123","736",,,"Zürich, ETH/Universitätsspital",Zürich,"Bus,Tram","&nbsp;","2",,"110","3",Bus Tram,"6,9,10,E,N11","2683796","1247976","130","137",8427.109479452050437,9630.434136986299563,10744.749721115500506,12214.941354581700580,"736",ETHZ,18057.543616438299068,22959.691075697199267,8.548224835759338,47.377290624224713
"8590795","1690",,,"Schlieren, Mülligen",Schlieren,"Bus,Trolleybus","&nbsp;","0",,"154","2",Bus,"31,N2","2677656","1249933","357","369",602.491358904110029,658.377893972603033,760.968709163346944,838.787694422311006,"1690",MULL,1260.869252876710107,1599.756403585660109,8.467270259890556,47.395643041715225
"8591215","3153",,,"Zürich, Juchhof",Zürich,Bus,"&nbsp;","0",,"110","2",Bus,"307","2678097","1250236","482","494",32.616931506849298,51.012438356164402,38.619999999999997,61.659999999999997,"3153",JUCH,83.629369863013693,100.280000000000001,8.473164058974650,47.398315908355123
"8591141","893",,,"Zürich, Friedhof Eichbühl",Zürich,Bus,"&nbsp;","0",,"110","2",Bus,"35","2678223","1248521","622","641",18.973534246575301,43.384630136986303,17.280000000000001,46.329999999999998,"893",FEIC,62.358164383561601,63.609999999999999,8.474533095288949,47.382877228149923
"8591328","2140",,,"Zürich, Rütihof",Zürich,Trolleybus,"&nbsp;","0",,"110","2",Bus,"46","2678395","1251951","530","547",703.513123287670965,628.653095890411009,809.064980079681050,713.632749003984031,"2140",RUET,1332.166219178079928,1522.697729083670083,8.477411868149581,47.413704156052411
"8591051","137",,,"Zürich, Bachmattstrasse",Zürich,Tram,"&nbsp;","2",,"110","5",Tram,"2","2678857","1249202","219","228",538.637671232876983,535.475917808219037,624.492549800796951,615.769123505976040,"137",BACH,1074.113589041100113,1240.261673306770035,8.483048196948548,47.388926176806045
"8576241","1156",,,"Zürich, Heizenholz",Zürich,"Bus,Trolleybus","&nbsp;","0",,"110","2",Bus,"46,89,N4","2678883","1251795","247","258",589.428109589041014,654.982383561644042,732.651075697211013,803.186573705178944,"1156",HEIZ,1244.410493150679940,1535.837649402390070,8.483849909033816,47.412242914437591
"8591163","1007",,,"Zürich, Goldackerweg",Zürich,Bus,"&nbsp;","0",,"110","2",Bus,"80","2679251","1247313","71","76",383.343150684932027,450.358602739725995,461.398605577689011,531.366334661355040,"1007",GOLD,833.701753424658023,992.764940239043995,8.487931404438710,47.371890297217455
"8591371","2402",,,"Zürich, Singlistrasse",Zürich,"Bus,Trolleybus","&nbsp;","0",,"110","2",Bus,"46,N4","2679621","1251012","244","255",285.109917808218995,276.269424657533989,335.361832669323007,320.319362549800985,"2402",SING,561.379342465752984,655.681195219123993,8.493488022436098,47.405112302797079
"8591402","2707",,,"Zürich, Tüffenwies",Zürich,"Bus,Tram","&nbsp;","2",,"110","3",Bus Tram,"17,80,89,304,308,485","2679724","1250214","75","80",1931.783616438360013,1897.648630136990050,2234.028605577690087,2206.170318725100060,"2707",TUEF,3829.432246575349836,4440.198924302790147,8.494710188010382,47.397923135955075
"8591281","6628",,,"Zürich, Mühlacker",Zürich,Bus,"&nbsp;","0",,"110","2",Bus,"61","2679806","1253358","331","343",206.499726027397003,210.998465753424995,225.704063745019994,232.768525896413990,"6628",MUEH,417.498191780822026,458.472589641434013,8.496357618651880,47.426188249224126
"8591431","2899",,,"Zürich, Wieslergasse",Zürich,"Bus,Trolleybus","&nbsp;","0",,"110","2",Bus,"38,46,N4","2679809","1250898","243","254",859.510410958904004,698.907534246574983,983.983585657371009,791.159322709163007,"2899",WIES,1558.417945205480009,1775.142908366530037,8.495958101637260,47.404064304685413
"8503610","2680",,,"Zürich, Triemli",Zürich,"Bus,Tram,Trolleybus","&nbsp;","2",,"110","3",Bus Tram,"9,14,33,80,215,220,235,236,245,350,N14","2679817","1246895","73","78",5633.968938630139746,5493.518332054790335,6385.761245418329963,6167.508291633470435,"2680",TRIE,11127.487270684900068,12553.269537051799489,8.495349984312920,47.368062723083000
"8591145","897",,,"Zürich, Friedhof Sihlfeld",Zürich,Trolleybus,"&nbsp;","0",,"110","2",Bus,"72","2680979","1247786","147","154",272.893068493151020,272.438931506848974,299.806573705179005,299.728167330677024,"897",FSIH,545.331999999999994,599.534741035855973,8.510893375911603,47.375934106421816
"8591084","3714",,,"Zürich, Binz Center",Zürich,Bus,"&nbsp;","0",,"110","2",Bus,"76","2681012","1246226","475","487",348.252986301370015,355.822109589041020,501.579999999999984,511.810000000000002,"3714",BINC,704.075095890411035,1013.389999999999986,8.511048010455784,47.361900297677899
"8591416","2799",,,"Zürich, Waidbadstrasse",Zürich,Bus,"&nbsp;","0",,"110","2",Bus,"38,69","2681144","1250350","479","491",227.412520547945007,347.647506849314993,243.540039840637007,371.768525896414019,"2799",WAIB,575.060027397260001,615.308565737051026,8.513542943885573,47.398972825851118
"8591210","1310",,,"Zürich, Im Hüsli",Zürich,Bus,"&nbsp;","0",,"110","2",Bus,"70,N12","2681188","1242485","603","622",254.903616438356011,474.518383561643986,283.779999999999973,533.909999999999968,"1310",IHUS,729.422000000000025,817.690000000000055,8.512699798043707,47.328233986837077
"8591278","1648",,,"Zürich, Mittelleimbach",Zürich,Bus,"&nbsp;","0",,"110","2",Bus,"70,151,N12","2681316","1241920","605","624",492.979205479451991,530.971616438356023,547.090000000000032,583.620000000000005,"1648",MITL,1023.950821917810003,1130.710000000000036,8.514290506540382,47.323136866330231
"8591259","1579",,,"Zürich, Lochergut",Zürich,"Bus,Tram","&nbsp;","2",,"110","3",Bus Tram,"2,3,N14","2681479","1247735","213","222",4154.093123287670096,4122.269150684929627,4519.026653386449652,4517.033227091629669,"1579",LOCH,8276.362273972599723,9036.059880478080231,8.517503916484957,47.375413805867986
"8576196","1456",,,"Zürich, Kreuzstrasse",Zürich,"Bus,Tram","&nbsp;","2",,"110","3",Bus Tram,"2,4,912,916,N18","2683936","1246410","207","216",2905.449260273970140,2518.480794520549807,3545.593705179279823,3105.477649402389943,"1456",KRES,5423.930054794520402,6651.071354581669766,8.549784812369653,47.363189194715382
"8590681","1577",,,"Kilchberg ZH, Lindt & Sprüngli",Kilchberg ZH,Bus,"&nbsp;","0",,"150","2",Bus,"163","2684107","1241507","706","728",27.936027397260300,23.080931506849300,38.310000000000002,30.620000000000001,"1577",LISP,51.016958904109600,68.930000000000007,8.551128103657074,47.319072554914399
"8590776","1505",,,"Rüschlikon, Langhaldenstrasse",Rüschlikon,Bus,"&nbsp;","0",,"150","2",Bus,"165,N15","2684126","1240062","269","280",17.224273972602699,28.428767123287699,21.020000000000000,36.039999999999999,"1505",LANH,45.653041095890401,57.060000000000002,8.551108437717897,47.306074501165938
"8591830","6461",,,Glattpark,Glattpark,"Bus,Tram","&nbsp;","2",,"110","3",Bus Tram,"10,11,12,N7","2684372","1252776","96","102",2468.113863013700211,2486.466246575339937,2941.690119521910219,2977.282231075700111,"6461",GGLA07,4954.580109589040148,5918.972350597609875,8.556756623987454,47.420384840722640
"8591377","2452",,,"Zürich, Spyristeig",Zürich,Bus,"&nbsp;","0",,"110","2",Bus,"39","2684384","1248981","643","662",9.287369863013700,13.076301369863000,10.390000000000001,14.350000000000000,"2452",SPYS,22.363671232876701,24.739999999999998,8.556199410578111,47.386253872159571
"8576200","2907",,,"Zürich, Wildbachstrasse",Zürich,"Bus,Tram,Trolleybus","&nbsp;","2",,"110","3",Bus Tram,"2,4,33,912,916,N18","2684637","1245308","211","220",1717.875701643840102,1724.917175342470046,2020.428410756969924,2007.984258964140054,"2907",WILD,3442.792876986310148,4028.412669721109978,8.558855269452193,47.353188837085185
"8576182","3041",,,"Zürich, Bahnhof Tiefenbrunnen",Zürich,"Bus,Tram,Trolleybus","&nbsp;","2",,"110","3",Bus Tram,"2,4,33,910,912,916,N18","2684803","1245002","1","4",3957.967230410959928,3721.363324931509851,4409.294139840640128,4205.253759362550227,"3041",BTIE,7679.330555342469779,8614.547899203189445,8.560994170697295,47.350415522932593
"8591330","2145",,,"Zürich, Saatlenstrasse",Zürich,Bus,"&nbsp;","0",,"110","2",Bus,"61,62,94","2684848","1251718","48","53",1072.837890410959972,1168.465506849320036,1247.954541832669975,1364.134541832670038,"2145",SAAT,2241.303397260279780,2612.089083665339786,8.562863043911152,47.410808843602027
"8573205","3027",,,"Zürich Flughafen, Bahnhof",Zürich Flughafen,"Bus,Tram","&nbsp;","2",,"121","3",Bus Tram,"10,12,510,520,521,524,530,531,731,732,733,734,735,736,737,759,765,768","2684851","1256094","576","594",3992.066082191779969,4408.647452054789937,4464.239999999999782,5021.460000000000036,"3027",FLUG07,8400.713534246569907,9485.700000000000728,8.563734085411554,47.450162584048485
"8591185","1160",,,"Zürich, Herbstweg",Zürich,Bus,"&nbsp;","0",,"110","2",Bus,"61,62","2684996","1251501","54","59",228.993260273972993,145.552164383562001,258.298247011952014,169.992270916335002,"1160",HERB,374.545424657535023,428.290517928286988,8.564782517869981,47.408838225485688
"8591198","3470",,,"Zürich, Hölderlinsteig",Zürich,Trolleybus,"&nbsp;","0",,"110","2",Bus,"33","2685074","1246831","345","357",170.434942465753011,212.114564109588997,198.964677290836988,245.866637051792992,"3470",HSTG,382.549506575341979,444.831314342629980,8.564927788452485,47.366829483481361
"8591297","3001",,,"Zürich, Orionstrasse",Zürich,Bus,"&nbsp;","0",,"110","2",Bus,"79","2685088","1252379","688","707",13.949726027397300,16.425013698630099,14.890000000000001,17.309999999999999,"3001",ORIO,30.374739726027400,32.200000000000003,8.566168453677536,47.416722391272437
"8591050","134",,,"Zürich, Auzelg Ost",Zürich,Bus,"&nbsp;","0",,"110","2",Bus,"79","2685531","1252028","687","706",63.784575342465800,62.948219178082198,73.890000000000001,73.239999999999995,"134",AUZO,126.732794520547998,147.129999999999995,8.571970881055391,47.413508377309576
"8591181","1139",,,"Zürich, Heerenwiesen",Zürich,"Bus,Tram","&nbsp;","2",,"110","3",Bus Tram,"9,N11","2685874","1251055","141","148",606.736575342466040,504.469095890410983,694.895418326692948,567.817609561752988,"1139",HEER,1111.205671232879922,1262.713027888449915,8.576328320438090,47.404713336125923
"8591325","2107",,,"Zürich, Roswiesen",Zürich,Tram,"&nbsp;","2",,"110","5",Tram,"7","2685926","1250860","415","427",554.188684931507055,550.036767123287973,616.478605577688995,614.057370517928007,"2107",ROSW,1104.225452054789912,1230.535976095620072,8.576979671330282,47.402952874034433
"8576187","53",,,"Zollikon, Allmend",Zollikon,Bus,"&nbsp;","0",,"140","2",Bus,"910,N18","2686484","1244199","613","632",101.032958904110004,134.005178082192003,113.790000000000006,156.770000000000010,"53",ZALL,235.038136986301993,270.560000000000002,8.583084105601850,47.342975452555294
"8591438","3773",,,"Zürich, Witikon Zentrum",Zürich,Bus,"&nbsp;","0",,"110","2",Bus,"91","2686621","1246003","657","676",26.339342465753401,23.321972602739699,32.200000000000003,23.600000000000001,"3773",WITZ,49.661315068493103,55.799999999999997,8.585245603577080,47.359181486473162
"8576188","2341",,,"Zollikon, Schützenstrasse",Zollikon,Bus,"&nbsp;","0",,"140","2",Bus,"910,N18","2686710","1244418","612","631",48.969205479452100,51.957342465753399,59.240000000000002,60.270000000000003,"2341",SUET,100.926547945205002,119.510000000000005,8.586116755059287,47.344915317510029
"8576210","2167",,,"Küsnacht ZH, Schiedhaldensteig",Küsnacht ZH,Bus,"&nbsp;","0",,"140","2",Bus,"912,919,N18","2686784","1241815","11","14",29.546246575342501,45.439095890410997,36.079999999999998,54.649999999999999,"2167",SIHG,74.985342465753504,90.730000000000004,8.586591997859282,47.321495752071350
"8591102","3787",,,"Zürich, Buchholz",Zürich,Bus,"&nbsp;","0",,"110","2",Bus,"91","2686879","1246201","658","677",31.896219178082202,32.902356164383598,34.399999999999999,35.399999999999999,"3787",BUHO,64.798575342465796,69.799999999999997,8.588698725708134,47.360928207863587
"8576218","462",,,"Küsnacht ZH, Bergstrasse",Küsnacht ZH,Bus,"&nbsp;","0",,"140","2",Bus,"916","2687033","1241034","670","689",21.246657534246602,26.240657534246601,25.289999999999999,31.359999999999999,"462",BEST,47.487315068493203,56.649999999999999,8.589733721749875,47.314439066880141
"8587655","2820",,,"Wallisellen, Bahnhof",Wallisellen,"Bus,Tram","&nbsp;","2",,"121","3",Bus Tram,"12,759,761,771,772,N11,N78","2687084","1251963","455","467",1872.343506849309961,1674.052109589039901,2299.659999999999854,2050.400000000000091,"2820",BWAL07,3546.395616438349862,4350.060000000000400,8.592533625110915,47.412720255189477
"8590884","3241",,,"Wallisellen, Florastrasse",Wallisellen,Bus,"&nbsp;","0",,"121","2",Bus,"759,772,N11","2687423","1251863","454","466",0.156712328767123,2.822246575342470,0.000000000000000,0.000000000000000,"3241",WFLO07,2.978958904109590,0.000000000000000,8.597005343253089,47.411776015605660
"8576221","2122",,,"Küsnacht ZH, Ränkestrasse",Küsnacht ZH,Bus,"&nbsp;","0",,"140","2",Bus,"916","2687452","1241055","673","692",6.395397260273970,47.222931506849299,8.480000000000000,60.229999999999997,"2122",RAEN,53.618328767123302,68.709999999999994,8.595278752007372,47.314572513521227
"8590552","2422",,,"Dübendorf, Breitibach",Dübendorf,Bus,"&nbsp;","0",,"121","2",Bus,"743,744,745,752,754,N17","2688288","1250118","432","444",128.814301369862989,136.769616438355996,158.939999999999998,160.409999999999997,"2422",DBRE,265.583917808218985,319.350000000000023,8.608120575492730,47.395967512036286
"8590570","1414",,,"Dübendorf, Kirche Wil",Dübendorf,Bus,"&nbsp;","0",,"121","2",Bus,"743,744,745,754,N17","2689060","1249392","435","447",141.453808219178001,189.975041095889992,173.719999999999999,227.930000000000007,"1414",KWIL,331.428849315068021,401.649999999999977,8.618200683587194,47.389334521317025
"8590604","544",,,"Fällanden, Bruggacher",Fällanden,Bus,"&nbsp;","0",,"121","2",Bus,"743,744,745","2690173","1247811","437","449",64.192285945205498,44.817769123287697,80.626869999999997,56.788229999999999,"544",FBRU,109.010055068493003,137.415099999999995,8.632621196020798,47.374964863705088
"8590596","1527",,,"Ebmatingen, Leeacherstrasse",Ebmatingen,Bus,"&nbsp;","0",,"121","2",Bus,"701,744,N16","2690341","1245568","502","515",64.554476712328807,94.631221917808205,78.884000000000000,113.536000000000001,"1527",LEEA,159.185698630137011,192.419999999999987,8.634392801151971,47.354770021627097
"8590612","2999",,,"Fällanden, Zil",Fällanden,Bus,"&nbsp;","0",,"121","2",Bus,"743,744,745","2690435","1247525","438","450",121.342082191781003,202.240136986300996,152.340000000000003,257.470000000000027,"2999",FZIL,323.582219178082028,409.810000000000002,8.636032059295330,47.372356897220087
"8590904","6364",,,"Wangen, Stierwisen",Wangen bei Dübendorf,Bus,"&nbsp;","0",,"121","2",Bus,"759,N17","2690883","1251675","737","759",0.047013698630137,3.017424657534250,0.000000000000000,0.000000000000000,"6364",STIE,3.064438356164390,0.000000000000000,8.642806081247230,47.409616832175118
"8590607","1324",,,"Fällanden, Industrie",Fällanden,Bus,"&nbsp;","0",,"121","2",Bus,"704,705","2691057","1247953","556","574",141.417495890411004,165.727830136986000,192.686000000000007,226.717999999999989,"1324",FAEI,307.145326027397005,419.403999999999996,8.644353445275138,47.376120322244070
"8590239","3822",,,"Killwangen, Bahnhof",Killwangen,Bus,"&nbsp;","0",,,"2",Bus,"303","2669111","1253959","638","657",217.873753424657991,244.245041095890002,280.360000000000014,302.279999999999973,"3822",BKIS,462.118794520548022,582.639999999999986,8.354714980794952,47.432802910793392
"8595708","6958",,,"Spreitenbach, Glattler",Spreitenbach,Bus,"&nbsp;","0",,"184","2",Bus,"315","2669752","1252634","555","572",27.937315068493099,14.761863013698600,40.625976095617503,21.466454183266901,"6958",SGLA,42.699178082191700,62.092430278884400,8.363004031281612,47.420818937730907
"8590270","3520",,,"Spreitenbach, Brüel",Spreitenbach,Bus,"&nbsp;","0",,"184","2",Bus,"303","2670456","1252302","630","649",283.372986301370020,272.743095890410984,326.620000000000005,320.189999999999998,"3520",BRUL,556.116082191780947,646.809999999999945,8.372280490153843,47.417758145948575
"8587018","1397",,,Kindhausen AG,Kindhausen AG,Bus,"&nbsp;","0",,"184","2",Bus,"305,315","2670768","1249671","546","563",64.659068493150698,73.558904109588994,74.837609561752998,82.348605577689199,"1397",KIND,138.217972602739991,157.186215139441998,8.375998207217487,47.394062718089216
"8590268","3460",,,"Spreitenbach, Asp",Spreitenbach,Bus,"&nbsp;","0",,"184","2",Bus,"303","2671008","1251911","629","648",59.364383561643798,59.079890410958903,69.780000000000001,69.560000000000002,"3460",ASPS,118.444273972603000,139.340000000000003,8.379532571214009,47.414182397220280
"8590202","466",,,"Bergdietikon, Bernold",Bergdietikon,Bus,"&nbsp;","0",,"184","2",Bus,"305,315","2671693","1249004","549","566",19.420164383561598,14.889424657534200,24.070677290836699,19.198565737051801,"466",BOLD,34.309589041095798,43.269243027888500,8.388142431042647,47.387964003770136
"8590201","457",,,"Bergdietikon, Bergli",Bergdietikon,Bus,"&nbsp;","0",,"184","2",Bus,"305,315","2671805","1249367","550","567",28.359232876712301,26.946575342465799,36.698884462151398,33.294023904382499,"457",BERL,55.305808219178097,69.992908366533896,8.389683895338241,47.391216467501607
"8590519","1540",,,"Dietikon, Lerzen",Dietikon,Bus,"&nbsp;","0",,"154","2",Bus,"309","2672479","1252313","540","557",218.169402739725996,246.152532602739996,302.632000000000005,335.114399999999989,"1540",LERZ,464.321935342466020,637.746399999999994,8.399087663160056,47.417637514937979
"8590523","1868",,,"Dietikon, Pestalozzi",Dietikon,Bus,"&nbsp;","0",,"154","2",Bus,"309","2672534","1251920","541","558",117.700101369863006,142.723558356164006,160.627000000000010,193.638800000000003,"1868",PEST,260.423659726026983,354.265800000000013,8.399752652882935,47.414097026448630
"8590616","2303",,,"Geroldswil, Schweizäcker",Geroldswil,Bus,"&nbsp;","0",,"154","2",Bus,"301","2672874","1252907","535","552",75.289357808219194,70.436759452054801,92.295599999999993,83.537199999999999,"2303",SWAK,145.726117260274009,175.832799999999992,8.404418384074255,47.422936026973183
"8590512","502",,,"Dietikon, Birmensdorferstrasse",Dietikon,Bus,"&nbsp;","0",,"154","2",Bus,"303,314,N30","2673888","1250100","495","507",320.964596164383977,322.255689863014027,403.177599999999984,405.106800000000021,"502",BIRM,643.220286027397947,808.284400000000005,8.417391540279311,47.397578381194307
"8590619","3727",,,"Glanzenberg, Bahnhof",Dietikon,Bus,"&nbsp;","0",,"154","2",Bus,"311","2674052","1250228","583","601",136.175945205478996,145.215287671233000,153.879999999999995,172.439999999999998,"3727",GLAN,281.391232876712024,326.319999999999993,8.419584954014510,47.398711131587021
"8590846","2238",,,"Urdorf, Schlierenstrasse",Urdorf,Bus,"&nbsp;","0",,"154","2",Bus,"302,308","2674332","1249392","186","194",253.476575342465992,200.559041095889995,311.629999999999995,244.770000000000010,"2238",SCHS,454.035616438355987,556.399999999999977,8.423154778449859,47.391161034741899
"8590842","1726",,,"Urdorf, Neumattstrasse",Urdorf,Bus,"&nbsp;","0",,"154","2",Bus,"311,N30","2674336","1248967","587","605",61.023323835616402,47.639586301369903,52.053199999999997,45.598999999999997,"1726",NMAT,108.662910136986000,97.652199999999993,8.423137139984966,47.387338342438255
"8590838","6297",,,"Urdorf, Heinrich-Stutz-Strasse",Urdorf,Bus,"&nbsp;","0",,"154","2",Bus,"314","2674502","1247101","491","503",46.872083835616401,60.812004931506799,68.160600000000002,88.431799999999996,"6297",HEIN,107.684088767123001,156.592399999999998,8.425024821571183,47.370537657978360
"8590801","3748",,,"Schlieren, Steinacker",Schlieren,Bus,"&nbsp;","0",,"154","2",Bus,"303,311","2674568","1249953","585","603",281.494849315069018,278.751506849314978,336.120000000000005,335.060000000000002,"3748",STAK,560.246356164383997,671.179999999999950,8.426373793214212,47.396179713139773
"8503698","2748",,,"Birmensdorf ZH, Untere Risi",Birmensdorf ZH,Bus,"&nbsp;","0",,"154","2",Bus,"215,245,N14","2676173","1245925","718","740",0.058410958904110,0.769315068493151,0.000000000000000,0.000000000000000,"2748",BIRMURI,0.827726027397261,0.000000000000000,8.446946258161702,47.359770236904886
"8591169","1076",,,"Zürich, Güterbahnhof",Zürich,"Tram,Trolleybus","&nbsp;","2",,"110","3",Bus Tram,"8,31","2681658","1248282","353","365",1372.274747123289899,1330.251875068490108,1581.508656175300075,1534.544320318729888,"1076",GUET,2702.526622191780007,3116.052976494030190,8.519973589927186,47.380311033539279
"8591247","1528",,,"Zürich, Lehenstrasse",Zürich,"Bus,Trolleybus","&nbsp;","0",,"110","2",Bus,"46,N8","2681689","1250043","527","544",467.083534246575027,549.945150684931036,527.698525896414026,614.306055776891981,"1528",LEHE,1017.028684931510043,1142.004581673309985,8.520705595756624,47.396144503062231
"8591206","1292",,,"Zürich, Hürstholz",Zürich,Bus,"&nbsp;","0",,"110","2",Bus,"40","2681820","1252351","298","309",16.940356164383601,14.159287671232899,18.250000000000000,15.619999999999999,"1292",HUER,31.099643835616501,33.869999999999997,8.522863034512820,47.416884799143943
"8591418","2801",,,"Zürich, Waidhof",Zürich,Bus,"&nbsp;","0",,"110","2",Bus,"62,N1","2681822","1253127","66","71",297.519835616438002,282.404767123288025,322.829322709163023,305.428446215138990,"2801",WAIH,579.924602739725970,628.257768924302013,8.523031627938250,47.423863326869167
"8590464","28",,,"Adliswil, Bahnhof",Adliswil,Bus,"&nbsp;","0",,"150","2",Bus,"151,152,153,156,184,185,E","2682091","1240668","664","683",488.997013698629985,463.202657534247010,575.720677290836989,546.253585657370991,"28",BADL01,952.199671232876995,1121.974262948210026,8.524311941642544,47.311780943867561
"8591280","3451",,,"Zürich, Mötteliweg",Zürich,Bus,"&nbsp;","0",,"110","2",Bus,"80","2682096","1252029","87","92",465.557260273972986,513.878191780822021,525.663904382470037,577.426533864541966,"3451",MOTT,979.435452054794951,1103.090438247010070,8.526460835379304,47.413954608564545
"8591266","1611",,,"Zürich, Maienweg",Zürich,Bus,"&nbsp;","0",,"110","2",Bus,"40","2682100","1251350","300","311",98.416082191780802,140.097479452055012,113.170000000000002,158.039999999999992,"1611",MAIE,238.513561643835999,271.209999999999980,8.526389121433407,47.407847666027251
"8591415","2795",,,"Zürich, Waffenplatzstrasse",Zürich,"Bus,Tram,Trolleybus","&nbsp;","2",,"110","3",Bus Tram,"5,13,17,66,72,N12","2682123","1246195","152","159",3422.244849315070041,2952.046821917810121,4060.104980079679990,3492.482669322710080,"2795",WAFF,6374.291671232879708,7552.587649402389616,8.525747679366566,47.361484008701879
"8591414","6019",,,"Zürich, Waffenplatz-/Bederstr.",Zürich,"Bus,Trolleybus","&nbsp;","0",,"110","2",Bus,"66,72","2682180","1246216","159","166",232.953452054795008,827.962164383562026,280.347450199203024,999.094541832669051,"6019",WAFB,1060.915616438360075,1279.441992031870086,8.526505987060654,47.361665766079312
"8591204","1288",,,"Zürich, Hügelstrasse",Zürich,"Bus,Trolleybus","&nbsp;","0",,"110","2",Bus,"66,72","2682222","1245869","153","160",555.547287671232993,544.339534246574999,643.932749003983986,632.541235059760993,"1288",HUEG,1099.886821917810039,1276.473984063740090,8.526998197043753,47.358539807799730
"8591235","1445",,,"Zürich, Krematorium Nordheim",Zürich,Bus,"&nbsp;","0",,"110","2",Bus,"40","2682243","1251076","301","312",17.910547945205501,26.422438356164399,21.930000000000000,30.969999999999999,"1445",KNOR,44.332986301369900,52.899999999999999,8.528233118243307,47.405365658565557
"8590474","1462",,,"Adliswil, Krone",Adliswil,Bus,"&nbsp;","0",,"150","2",Bus,"184,N12","2682341","1240816","258","269",27.001424657534201,28.961375643835598,31.559999999999999,34.379610000000000,"1462",KROA01,55.962800301369803,65.939610000000002,8.527645027649895,47.313080833805245
"8591322","2127",,,"Zürich, Röntgenstrasse",Zürich,Trolleybus,"&nbsp;","0",,"110","2",Bus,"32","2682357","1248472","403","415",1686.184821917810041,1727.488054794519940,1899.472430278879983,1965.186055776890043,"2127",ROEN,3413.672876712329980,3864.658486055770027,8.529263812628560,47.381932771492863
"8591381","2556",,,"Zürich, Stauffacher",Zürich,"Bus,Tram","&nbsp;","2",,"110","3",Bus Tram,"2,3,8,9,14,N14","2682369","1247526","134","141",19678.171068493098574,20369.723123287698400,22599.015776892400027,23404.789083665298676,"2556",STAU,40047.894191780796973,46003.804860557698703,8.529248604787155,47.373423535620155
"8591108","3450",,,"Zürich, Chaletweg",Zürich,Bus,"&nbsp;","0",,"110","2",Bus,"80","2682456","1251969","88","93",750.811397260274020,848.659041095889961,888.656414342628977,1014.192788844620054,"3450",CHAL,1599.470438356160003,1902.849203187249941,8.531219433191772,47.413370029155651
"8591439","2950",,,"Zürich, Wollishofen",Zürich,"Bus,Tram","&nbsp;","2",,"110","3",Bus Tram,"7,184,185,N12","2682492","1243638","253","264",3708.662931506849873,3820.436082191779860,4221.399163346610294,4294.237968127489694,"2950",WOLL,7529.099013698630188,8515.637131474100897,8.530160973388099,47.338441672468782
"8591267","3788",,,"Zürich, Maillartstrasse",Zürich,Bus,"&nbsp;","0",,"110","2",Bus,"64","2682518","1252285","659","678",343.108000000000004,294.671123287670980,401.319999999999993,339.259999999999991,"3788",MAIL,637.779123287671041,740.580000000000041,8.532099209907289,47.416204135541065
"8590477","6592",,,"Adliswil, Moos",Adliswil,Bus,"&nbsp;","0",,"150","2",Bus,"185","2682586","1242160","661","680",22.378657534246599,24.741835616438401,27.170000000000002,28.890000000000001,"6592",ADMO,47.120493150685000,56.060000000000002,8.531132365296182,47.325137515091022
"8591383","6117",,,"Zürich, Stierenried",Zürich,Bus,"&nbsp;","0",,"110","2",Bus,"64","2682772","1252335","660","679",87.346000000000004,79.357150684931497,98.090000000000003,88.920000000000002,"6117",SRIE,166.703150684932012,187.009999999999991,8.535473875058926,47.416621916761521
"8591307","2017",,,"Zürich, Radiostudio",Zürich,"Bus,Tram,Trolleybus","&nbsp;","2",,"110","3",Bus Tram,"11,32,40,N1,N7","2682773","1250707","100","106",2165.443232876710226,2251.833780821919845,2423.218326693230210,2491.989840637450015,"2017",RADI,4417.277013698630071,4915.208167330680226,8.535185679010658,47.401980731053101
"8591384","2582",,,"Zürich, Stockerstrasse",Zürich,Tram,"&nbsp;","2",,"110","5",Tram,"6,7,8,13,17","2682843","1246915","380","392",6629.851506849319776,6561.353890410960048,8581.017290836649408,8458.283705179279423,"2582",STOC,13191.205397260300742,17039.300996015899727,8.535410816802434,47.367869155251739
"8591326","2108",,,"Zürich, Rotbuchstrasse",Zürich,Trolleybus,"&nbsp;","0",,"110","2",Bus,"32,33","2682860","1249518","334","346",1954.465175616440092,1992.036448219180102,2212.780315139440063,2231.845512350600075,"2108",ROTB,3946.501623835620194,4444.625827490040137,8.536117802761725,47.391276740268779
"8591191","6250",,,"Zürich, Himmeri",Zürich,Bus,"&nbsp;","0",,"110","2",Bus,"75,N6","2683006","1252714","321","333",535.517095890411042,640.821972602739947,620.402310756972042,739.024541832669001,"6250",HIMM,1176.339068493150080,1359.426852589640021,8.538644708248189,47.420000899795767
"8594254","6780",,,"Kilchberg ZH, Obere Hornhalde",Kilchberg ZH,Bus,"&nbsp;","0",,"150","2",Bus,"163","2683104","1242882","711","733",6.997260273972600,8.043342465753421,9.039999999999999,10.699999999999999,"6780",KOBE,15.040602739725999,19.739999999999998,8.538117757990037,47.331565753716731
"8591067","416",,,"Zürich, Bahnhofstrasse/HB",Zürich,"Bus,Tram","&nbsp;","2",,"110","3",Bus Tram,"6,7,11,13,17,N1,N6,N13","2683135","1247848","108","114",25217.714027397298196,22459.263287671201397,29163.900239043799957,26597.370836653401057,"416",BSTR,47676.977315068499593,55761.271075697201013,8.539449463866212,47.376223205371772
"8591272","3764",,,"Zürich, Max-Bill-Platz",Zürich,Bus,"&nbsp;","0",,"110","2",Bus,"64,75,80,N6,N7","2683218","1252055","90","95",2040.380931506849947,2035.350054794520020,2357.311394422310059,2359.396454183270180,"3764",MAXB,4075.730986301370194,4716.707848605579784,8.541331111222711,47.414047586777947
"8591378","2461",,,"Zürich, Stadtgrenze",Zürich,Bus,"&nbsp;","0",,"110","2",Bus,"161,165,N15","2683352","1243272","277","288",371.665205479452027,344.601013698630027,422.519999999999982,390.550000000000011,"2461",STAD,716.266219178081997,813.070000000000050,8.541470955291041,47.335041911043255
"8590677","1249",,,"Kilchberg ZH, Hornhaldenstr.",Kilchberg ZH,Bus,"&nbsp;","0",,"150","2",Bus,"161,N15","2683385","1242946","290","301",66.879315068493199,90.530712328767095,80.209999999999994,102.489999999999995,"1249",HORN,157.410027397259995,182.699999999999989,8.541846889898224,47.332105865527438
"8590678","1401",,,"Kilchberg ZH, Kirche",Kilchberg ZH,Bus,"&nbsp;","0",,"150","2",Bus,"161,162","2683391","1241358","284","295",277.276607315068020,337.317041095889977,319.809169999999995,396.279999999999973,"1401",KILB,614.593648410958053,716.089169999999967,8.541630965020733,47.317823429797293
"8591373","2411",,,"Zürich, Sonneggstrasse",Zürich,"Bus,Tram","&nbsp;","2",,"110","3",Bus Tram,"7,15,N6","2683445","1248588","375","387",1280.427972602740056,1466.195068493150075,1559.834382470120090,1821.333466135459958,"2411",SONN,2746.623041095890130,3381.167848605579820,8.543691737313960,47.382839098805960
"8591085","497",,,"Zürich, Birch-/Glatttalstrasse",Zürich,Bus,"&nbsp;","0",,"110","2",Bus,"75,742,N6","2683560","1253545","316","328",817.004904109589006,931.177123287670952,929.704980079681036,1052.469282868529945,"497",BIGL,1748.182027397260072,1982.174262948210071,8.546140929056342,47.427404187418517
"8591255","1550",,,"Zürich, Letzistrasse",Zürich,"Bus,Tram","&nbsp;","2",,"110","3",Bus Tram,"9,10,39,N11","2683569","1249462","125","132",1120.851424657530060,1213.612356164379889,1273.983705179279923,1363.173027888449951,"1550",LETZ,2334.463780821909950,2637.156733067729874,8.545496909922880,47.390683549635582
"8590680","1457",,,"Kilchberg ZH, Kreuzstrasse",Kilchberg ZH,Bus,"&nbsp;","0",,"150","2",Bus,"161,162,163","2683653","1242167","287","298",76.529916383561599,96.590219178082194,97.789479999999998,121.989999999999995,"1457",KREK,173.120135561643991,219.779480000000007,8.545246846248940,47.325065999332374
"8590690","2304",,,"Kilchberg ZH, Schwelle",Kilchberg ZH,Bus,"&nbsp;","0",,"150","2",Bus,"161,162,163,N15","2683657","1241790","286","297",99.431369863013700,166.107493643835994,122.030000000000001,205.090180000000004,"2304",KSCH,265.538863506850021,327.120180000000005,8.545229429294542,47.321674943266032
"8503699","687",,,"Uitikon, Dorf",Uitikon,Bus,"&nbsp;","0",,"154","2",Bus,"201,215,245,N14","2676701","1247129","719","741",2.349260273972600,5.229917808219180,0.000000000000000,0.000000000000000,"687",UITIDRF,7.579178082191780,0.000000000000000,8.454140973270245,47.370537218700825
"8583613","6907",,,"Waldegg, Leuen",Waldegg bei Uitikon,Bus,"&nbsp;","0",,"154","2",Bus,"220,350,N14","2677129","1246273","716","738",0.047013698630137,2.117041095890410,0.000000000000000,0.000000000000000,"6907",WALDLEU,2.164054794520550,0.000000000000000,8.459659578886223,47.362788816816852
"8590728","2984",,,"Oberengstringen, Zentrum",Oberengstringen,Bus,"&nbsp;","0",,"154","2",Bus,"304,308,N4","2677284","1251428","169","177",466.394821917807974,463.596000000000004,546.009999999999991,545.779999999999973,"2984",OBEE,929.990821917808034,1091.789999999999964,8.462601620364383,47.409131944596510
"8503709","1991",,,"Waldegg, Post",Waldegg bei Uitikon,Bus,"&nbsp;","0",,"154","2",Bus,"201,215,245,N14","2677329","1246879","720","742",0.113972602739726,0.008547945205479,0.000000000000000,0.000000000000000,"1991",WALPOST,0.122520547945205,0.000000000000000,8.462411530278377,47.368215453310583
"8591260","1581",,,"Zürich, Loogarten",Zürich,Bus,"&nbsp;","0",,"110","2",Bus,"35","2678047","1249247","621","640",83.900904109589007,91.015095890411004,100.890000000000001,107.950000000000003,"1581",LOOG,174.915999999999997,208.840000000000003,8.472329231436674,47.389427340239614
"8591413","3588",,,"Zürich, Vulkanstrasse",Zürich,Bus,"&nbsp;","0",,"110","2",Bus,"307","2678927","1249806","481","493",14.250657534246599,7.908410958904110,20.230000000000000,11.029999999999999,"3588",VULK,22.159068493150698,31.260000000000002,8.484081770682389,47.394349814119735
"8591158","979",,,"Zürich, Giblenstrasse",Zürich,"Bus,Trolleybus","&nbsp;","0",,"110","2",Bus,"46,N4","2679044","1251629","246","257",310.435753424658003,426.679424657534014,351.249442231075989,477.859402390437992,"979",GIBL,737.115178082191960,829.108844621513981,8.485953604699363,47.410730711892086
"8591197","1231",,,"Zürich, Hohenklingensteig",Zürich,Bus,"&nbsp;","0",,"110","2",Bus,"80,89,304,308","2679379","1250590","77","82",207.736493150684993,203.412821917808003,231.881912350597986,226.658804780876011,"1231",HOHE,411.149315068493024,458.540717131474025,8.490207340848485,47.401346313930603
"8591214","1320",,,"Zürich, In der Ey",Zürich,"Bus,Trolleybus","&nbsp;","0",,"110","2",Bus,"33,80,N14","2679534","1247022","72","77",1002.768188767120023,1068.923982739730036,1139.651350199199896,1201.603998804780076,"1320",IDEY,2071.692171506850173,2341.255349003979973,8.491626260699888,47.369239106608475
"8591143","895",,,"Zürich, Friedhof Hönggerberg",Zürich,Bus,"&nbsp;","0",,"110","2",Bus,"38","2679664","1251438","679","698",19.056328767123301,49.587835616438397,16.859999999999999,50.600000000000001,"895",FHOE,68.644164383561701,67.459999999999994,8.494133549535402,47.408938270707701
"8591344","3155",,,"Zürich, Schulhaus Altweg",Zürich,"Bus,Trolleybus","&nbsp;","0",,"110","2",Bus,"33,N14","2679724","1247362","342","354",788.852652054795044,598.089920000000006,907.028717131473968,674.859803984064001,"3155",ALTW,1386.942572054799939,1581.888521115540016,8.494202034589691,47.372273923043323
"8591896","6648",,,"Zürich, Würzgraben",Zürich,Tram,"&nbsp;","2",,"110","5",Tram,"4","2679743","1249566","395","407",197.771890410959003,248.930794520548005,244.021274900397998,294.232191235059986,"6648",WURZ,446.702684931507008,538.253466135457984,8.494846318551620,47.392093122848173
"8591331","2147",,,"Zürich, Sackzelg",Zürich,"Bus,Trolleybus","&nbsp;","0",,"110","2",Bus,"33,67,N14","2679820","1247598","37","42",1202.470800547949921,1220.061930958899893,1384.842439043819923,1396.154919521909960,"2147",SACK,2422.532731506849814,2780.997358565729883,8.495515039579734,47.374384754653832
"8591176","1120",,,"Zürich, Hardhof",Zürich,Tram,"&nbsp;","2",,"110","5",Tram,"17","2679935","1250042","225","235",198.789369863014002,181.420219178081993,211.453705179282991,194.006374501992013,"1120",HARH,380.209589041096024,405.460079681274976,8.497474176392474,47.396350702782485
"8591253","3148",,,"Zürich, Letzipark",Zürich,"Bus,Trolleybus","&nbsp;","0",,"110","2",Bus,"31,N2","2680079","1249090","362","374",1562.285312602740078,1622.458776438360019,1711.794378884460002,1783.949933864540071,"3148",LETP,3184.744089041099869,3495.744312749000073,8.499211000342717,47.387771508619885
"8591203","1252",,,"Zürich, Hubertus",Zürich,"Bus,Tram,Trolleybus","&nbsp;","2",,"110","3",Bus Tram,"3,33,83,89,N14","2680089","1247935","341","353",3227.857483013699948,3146.098937534250126,3779.026778087650200,3686.092757768919910,"1252",HUBE,6373.956420547950074,7465.119535856570110,8.499136711904494,47.377382901842367
"8576263","1259",,,"Zürich, Hungerbergstrasse",Zürich,"Bus,Trolleybus","&nbsp;","0",,"110","2",Bus,"32,491,N1","2680203","1252797","407","419",1241.508328767120020,1054.784520547950024,1436.841992031869950,1214.945856573709989,"1259",HUNG,2296.292849315069816,2651.787848605580166,8.501518035037982,47.421094765443264
"8591334","2142",,,"Zürich, SBB-Werkstätte",Zürich,"Bus,Trolleybus","&nbsp;","0",,"110","2",Bus,"31,N2","2680395","1248960","363","375",836.696148493150986,855.915459178081960,1015.540614342629965,1035.317062151390019,"2142",SBBW,1692.611607671230104,2050.857676494019870,8.503372310163311,47.386563880572531
"8591338","3458",,,"Zürich, Schauenberg",Zürich,Bus,"&nbsp;","0",,"110","2",Bus,"37","2680619","1252258","470","482",53.174657534246599,120.429041095890000,62.369999999999997,135.180000000000007,"3458",PSCH,173.603698630136989,197.550000000000011,8.506933175339212,47.416196569649074
"8591190","1187",,,"Zürich, Heuried",Zürich,"Bus,Tram","&nbsp;","2",,"110","3",Bus Tram,"9,14,N5","2680646","1247056","137","144",1168.309452054789972,1223.572191780820049,1243.255418326690005,1281.444820717129915,"1187",HEUR,2391.881643835609793,2524.700239043820147,8.506353053027190,47.369409743446937
"8591149","902",,,"Zürich, Friesenberg",Zürich,Trolleybus,"&nbsp;","0",,"110","2",Bus,"32","2680778","1246488","411","423",884.320794520548020,787.946876712328958,1002.522589641430045,901.816772908366033,"902",FRIB,1672.267671232880048,1904.339362549799944,8.507998003804181,47.364285302026467
"8591195","1272",,,"Zürich, Höfliweg",Zürich,Trolleybus,"&nbsp;","0",,"110","2",Bus,"32","2680996","1246857","410","422",710.391534246575020,681.940356164383957,833.274223107570037,792.403067729084000,"1272",HOEF,1392.331890410960114,1625.677290836649945,8.510950367463254,47.367577126539373
"8591308","2120",,,"Zürich, Räffelstrasse",Zürich,Bus,"&nbsp;","0",,"110","2",Bus,"76","2681284","1246324","473","485",115.012164383561995,146.341726027396987,161.680000000000007,204.669999999999987,"2120",RAEF,261.353890410959025,366.350000000000023,8.514666035858603,47.362748166795257
"8591245","1519",,,"Zürich, Laubegg",Zürich,"Bus,Tram","&nbsp;","2",,"110","3",Bus Tram,"5,13,17,89,N5","2681473","1245880","314","326",2584.835506849320154,2444.441287671229929,3138.739442231079920,2986.315258964139957,"1519",LAUB,5029.276794520549629,6125.054701195220332,8.517086937987674,47.358731741703778
"8590674","3775",,,"Kilchberg ZH, Bendlikon",Kilchberg ZH,Bus,"&nbsp;","0",,"150","2",Bus,"163,165","2684049","1241848","275","286",104.945835616438004,79.130739726027400,124.390000000000001,94.599999999999994,"3775",BEND,184.076575342464992,218.990000000000009,8.550424928552404,47.322146730365347
"8591294","6459",,,"Zürich, Oerlikerhus",Zürich,Tram,"&nbsp;","2",,"110","5",Tram,"10,11","2684184","1252462","95","101",1093.958904109590094,1053.426136986299980,1395.071314741039942,1353.536573705179990,"6459",ZOER,2147.385041095889846,2748.607888446219931,8.554206352565284,47.417585035171392
"8591109","3717",,,"Zürich, Chinagarten",Zürich,Bus,"&nbsp;","0",,"110","2",Bus,"912,916","2684189","1245449","17","20",63.746712328767103,65.504602739725996,47.729999999999997,57.439999999999998,"3717",CHIN,129.251315068493000,105.170000000000002,8.552952976075513,47.354514276309168
"8591192","1194",,,"Zürich, Hinterbergstrasse",Zürich,Trolleybus,"&nbsp;","0",,"110","2",Bus,"33","2684270","1248296","340","352",397.806956164384019,223.651422191780995,477.317605577688994,268.712187649401983,"1194",HINT,621.458378356164985,746.029793227090977,8.554560802582301,47.380108039120046
"8576198","1286",,,"Zürich, Höschgasse",Zürich,"Bus,Tram,Trolleybus","&nbsp;","2",,"110","3",Bus Tram,"2,4,33,912,916,N18","2684278","1245837","209","218",5270.118917808220431,5080.550633424660191,6159.038904382469809,6006.671040637449551,"1286",HOES,10350.669551232900631,12165.709945019900260,8.554203828005679,47.357992341038418
"8590783","410",,,"Rüschlikon, Schlossstrasse",Rüschlikon,Bus,"&nbsp;","0",,"150","2",Bus,"165","2684317","1240911","273","284",219.465178082192011,188.902219178081992,262.050000000000011,227.830000000000013,"410",BSRU,408.367397260274004,489.879999999999995,8.553793421799893,47.313685616980855
"8591078","471",,,"Zürich, Bethanien",Zürich,Trolleybus,"&nbsp;","0",,"110","2",Bus,"33","2684377","1248387","338","350",157.400406301369998,506.349853424658022,186.249754183266987,608.937715139442048,"471",BETH,663.750259726028048,795.187469322709035,8.555994704249198,47.380912737576267
"8591420","2814",,,"Zürich, Waldgarten",Zürich,"Bus,Tram","&nbsp;","2",,"110","3",Bus Tram,"7,9,75,N11","2684431","1250924","139","146",1495.552520547950053,1511.218301369860001,1674.943944223110066,1680.025019920319892,"2814",WALD,3006.770821917809826,3354.968964143430185,8.557188576903100,47.403721803240927
"8590626","6508",,,"Glattbrugg, Lindberghplatz",Glattbrugg,"Bus,Tram","&nbsp;","2",,"121","3",Bus Tram,"10,12,781","2684688","1253361","571","589",2175.016958904110197,2063.480904109590028,2658.230000000000018,2526.369999999999891,"6508",GLIN07,4238.497863013700226,5184.600000000000364,8.561054700668224,47.425605289724878
"8503083","2124",,,"Zürich, Römerhof",Zürich,"Bus,Tram,Zahnradbahn","&nbsp;","2",,"110","10",Bergbahn Bus Tram,"3,8,25,N16,N19","2684740","1246976","397","409",3623.110821917809972,3639.163232876710026,4062.830876494019776,4061.262231075700129,"2124",ROEM,7262.274054794520453,8124.093107569719905,8.560533979791906,47.368176552158950
"8591238","1471",,,"Zürich, Krönleinstrasse",Zürich,Bus,"&nbsp;","0",,"110","2",Bus,"39","2684752","1248757","644","663",23.038191780821901,34.118191780821903,25.940000000000001,37.140000000000001,"1471",KROE,57.156383561643800,63.079999999999998,8.561030076840268,47.384192131419994
"8591343","2326",,,"Zürich, Schörlistrasse",Zürich,Tram,"&nbsp;","2",,"110","5",Tram,"7,9","2684932","1251178","140","147",1344.201561643840023,1203.655315068489926,1541.208007968130005,1359.340517928289955,"2326",SCHO,2547.856876712330177,2900.548525896419960,8.563873299053558,47.405941667012208
"8591189","1186",,,"Zürich, Heubeeriweg",Zürich,Bus,"&nbsp;","0",,"110","2",Bus,"39","2685036","1248472","645","664",10.299342465753400,18.907534246575299,11.260000000000000,21.750000000000000,"1186",HEUB,29.206876712328700,33.009999999999998,8.564736526594787,47.381592442789398
"8573166","1684",,,"Thalwil, Mühlebachplatz",Thalwil,Bus,"&nbsp;","0",,"150","2",Bus,"140,240,N15","2685192","1238431","726","748",0.000000000000000,0.388931506849315,0.000000000000000,0.000000000000000,"1684",MUBA01,0.388931506849315,0.000000000000000,8.564893752885682,47.291269269126921
"8591421","2815",,,"Zürich, Waldhaus Dolder",Zürich,Zahnradbahn,"&nbsp;","0",,"110","6",Bergbahn,"25","2685332","1247542","598","617",154.950445534246995,249.489945205478989,163.267619999999994,278.889999999999986,"2815",WDOL,404.440390739726013,442.157620000000009,8.568478526301726,47.373190388615271
"8591120","3594",,,"Zürich, EPI-Klinik",Zürich,Bus,"&nbsp;","0",,"110","2",Bus,"77","2685536","1244816","26","30",218.688904109589004,291.893561643835994,275.149999999999977,373.189999999999998,"3594",EPIK,510.582465753425026,648.340000000000032,8.570658581653966,47.348648050869457
"8591349","2294",,,"Zürich, Schwamendingerplatz",Zürich,"Bus,Tram","&nbsp;","2",,"110","3",Bus Tram,"7,9,61,62,75,79,N11","2685539","1251037","52","57",8864.600767123289188,8675.279917808220489,10120.665577689200290,9889.393266932269398,"2294",SCHW,17539.880684931500582,20010.058844621500612,8.571887240086873,47.404595056359902
"8576206","610",,,"Küsnacht ZH, Bühlstrasse",Küsnacht ZH,Bus,"&nbsp;","0",,"140","2",Bus,"912,916","2686241","1242965","7","10",110.409178082192000,116.843150684931999,132.490000000000009,139.189999999999998,"610",BUEH,227.252328767123998,271.680000000000007,8.579631467736551,47.331909422903607
"8590705","3744",,,"Küsnacht ZH, Zentrum",Küsnacht ZH,Bus,"&nbsp;","0",,"140","2",Bus,"918,919,N18","2686433","1241452","693","712",149.607178082192007,121.733698630136999,192.300000000000011,159.599999999999994,"3744",ZENK,271.340876712329020,351.899999999999977,8.581879727612680,47.318277221621408
"8590881","439",,,"Wallisellen, Belair",Wallisellen,"Bus,Tram","&nbsp;","2",,"121","3",Bus Tram,"12,759,N78","2686530","1252092","579","597",376.345369863014014,383.503506849314988,486.120000000000005,490.339999999999975,"439",BELA07,759.848876712329002,976.460000000000036,8.585218855606012,47.413953413720769
"8576217","1769",,,"Küsnacht ZH, Obere Heslibachst",Küsnacht ZH,Bus,"&nbsp;","0",,"140","2",Bus,"916,918","2686714","1241304","669","688",133.789698630136996,123.831095890411007,165.840000000000003,153.650000000000006,"1769",OBHE,257.620794520547975,319.490000000000009,8.585567388829139,47.316909310024698
"8591300","3765",,,"Zürich, Stodolastrasse",Zürich,Bus,"&nbsp;","0",,"110","2",Bus,"91","2687026","1245756","656","675",16.718630136986299,12.784767123287700,17.000000000000000,14.400000000000000,"3765",STOD,29.503397260273999,31.399999999999999,8.590557909421443,47.356906782949928
"8590669","2695",,,"Itschnach, Tägermoos",Itschnach,Bus,"&nbsp;","0",,"140","2",Bus,"912,919,N18","2687338","1242309","13","16",184.034794520547990,164.305808219178004,219.000000000000000,193.199999999999989,"2695",TAEG,348.340602739726023,412.199999999999989,8.594015380455835,47.325865372474837
"8576222","54",,,"Küsnacht ZH, Allmend",Küsnacht ZH,Bus,"&nbsp;","0",,"140","2",Bus,"916","2687599","1241193","674","693",136.585041095890006,136.915232876711997,161.460000000000008,162.620000000000005,"54",KALL,273.500273972601974,324.079999999999984,8.597249660278020,47.315794102327807
"8590566","1228",,,"Dübendorf, Hoffnung",Dübendorf,Bus,"&nbsp;","0",,"121","2",Bus,"743,744,745,751,752,754","2687671","1250113","423","435",51.913786410958899,119.449323342466002,68.742040000000003,154.518020000000007,"1228",HOFF,171.363109753424993,223.260060000000010,8.599947781751595,47.396004963085687
"8591029","3747",,,"Zollikerberg, Trichtenhauserm.",Zollikerberg,Bus,"&nbsp;","0",,"140","2",Bus,"91","2687897","1245070","651","670",16.429095890410998,10.862684931506900,18.199999999999999,12.400000000000000,"3747",TRIC,27.291780821917900,30.600000000000001,8.601950737178612,47.350621787405075
"8590563","1054",,,"Dübendorf, Grüzenstrasse",Dübendorf,Bus,"&nbsp;","0",,"121","2",Bus,"754,N17","2688978","1249608","741","763",0.000000000000000,0.330520547945205,0.000000000000000,0.000000000000000,"1054",GRUZ,0.330520547945205,0.000000000000000,8.617157744310264,47.391288133255529
"8576225","2826",,,"Zumikon, Waltikon",Zumikon,Bus,"&nbsp;","0",,"140","2",Bus,"919","2689148","1243475","691","710",101.382410958904003,117.538849315068006,133.139999999999986,156.680000000000007,"2826",WALT,218.921260273971996,289.819999999999993,8.618188051430701,47.336109442609576
"8590558","863",,,"Dübendorf, Flugplatz",Dübendorf,Bus,"&nbsp;","0",,"121","2",Bus,"759,N17","2689747","1250870","735","757",0.028493150684931,0.289205479452055,0.000000000000000,0.000000000000000,"863",FLUP,0.317698630136987,0.000000000000000,8.627595024295912,47.402533174043221
"8594249","6778",,,"Benglen, Langwis",Benglen,Bus,"&nbsp;","0",,"121","2",Bus,"704,705,744,N19","2690005","1246363","500","513",18.601758904109602,20.101665753424701,21.782000000000000,22.568000000000001,"6778",BLAN,38.703424657534299,44.350000000000001,8.630105909038171,47.361965631315179
"8590712","3134",,,"Maur, Aschbach",Maur,Bus,"&nbsp;","0",,"130","2",Bus,"743","2692342","1245280","443","455",8.231827424657530,7.773546273972600,7.799510000000000,7.071890000000000,"3134",MASC,16.005373698630098,14.871400000000000,8.660814730509285,47.351902677626335
"8590273","6301",,,"Spreitenbach, Furttalstrasse",Spreitenbach,Bus,"&nbsp;","0",,,"2",Bus,"303","2669870","1253152","635","654",45.151753424657500,52.576328767123300,58.409999999999997,69.879999999999995,"6301",FURT,97.728082191780800,128.289999999999992,8.364648659495995,47.425465057654961
"8591891","6663",,,"Spreitenbach, Altersheim",Spreitenbach,Bus,"&nbsp;","0",,"184","2",Bus,"303","2670176","1252419","631","650",97.216794520547893,107.524164383561995,114.989999999999995,131.280000000000001,"6663",SPAL,204.740958904109988,246.270000000000010,8.368588754890967,47.418840284569299
"8590518","6695",,,"Dietikon, Lätten",Dietikon,Bus,"&nbsp;","0",,"154","2",Bus,"325","2671425","1250585","594","612",37.019616438356202,40.524958904109603,39.780000000000001,50.609999999999999,"6695",DLAE,77.544575342465805,90.390000000000001,8.384845765459662,47.402211908292571
"8590528","6262",,,"Dietikon, Silbern",Dietikon,Bus,"&nbsp;","0",,"154","2",Bus,"309","2672015","1252370","537","554",115.004122191780993,95.437842739725994,133.134600000000006,107.482600000000005,"6262",DSIL,210.441964931506988,240.617199999999997,8.392948709203646,47.418201051150952
"8590513","725",,,"Dietikon, Dörfli",Dietikon,Bus,"&nbsp;","0",,"154","2",Bus,"303","2673071","1250405","628","647",118.029095890411000,116.441671232876999,146.960000000000008,148.969999999999999,"725",DOER,234.470767123287999,295.930000000000007,8.406619979230975,47.400412535086780
"8590843","1731",,,"Urdorf, Niederurdorf",Urdorf,Bus,"&nbsp;","0",,"154","2",Bus,"302,308,314,N30","2673987","1249296","187","195",208.995217534246990,229.532523287671012,254.874400000000009,280.161000000000001,"1731",NURD,438.527740821917973,535.035399999999981,8.418569841111387,47.390336493729414
"8590845","2024",,,"Urdorf, Rainweg",Urdorf,Bus,"&nbsp;","0",,"154","2",Bus,"311,N30","2674499","1249199","586","604",38.786246575342503,46.942136986301399,20.980000000000000,36.659999999999997,"2024",RAIW,85.728383561643895,57.640000000000001,8.425334328259540,47.389406425003536
"8590834","2767",,,"Urdorf Weihermatt, Bahnhof",Urdorf,Bus,"&nbsp;","0",,"154","2",Bus,"308,311","2674862","1248168","191","199",264.630136986301011,371.235287671232982,305.699999999999989,454.319999999999993,"2767",BWEI,635.865424657534049,760.019999999999982,8.429969125038365,47.380092967270222
"8590792","1151",,,"Schlieren, Heimeliweg",Schlieren,Bus,"&nbsp;","0",,"154","2",Bus,"308,N30","2675409","1249784","183","191",74.348219178082203,118.188328767122997,85.942470119521900,141.543585657371011,"1151",HEIM,192.536547945205001,227.486055776893011,8.437484232147108,47.394564078781698
"8590910","3183",,,"Weiningen ZH, Aegelsee",Weiningen ZH,Bus,"&nbsp;","0",,"154","2",Bus,"302,304","2675913","1252123","205","213",87.738657534246599,55.756191780821901,97.451115537848594,67.992071713147396,"3183",AEGW,143.494849315068990,165.443187250996004,8.444556542581120,47.415541830600603
"8591061","2547",,,"Zürich, Bahnhof Leimbach",Zürich,Bus,"&nbsp;","0",,"110","2",Bus,"70,N12","2681626","1243049","601","620",1139.953972602739896,977.302602739726012,1298.640000000000100,1115.650000000000091,"2547",BLEI,2117.256575342470114,2414.289999999999964,8.518596253725050,47.333252268507763
"8591041","3706",,,"Zürich, Althoos",Zürich,Bus,"&nbsp;","0",,"110","2",Bus,"40","2681920","1251665","299","310",93.837671232876701,137.326520547944995,114.030000000000001,165.159999999999997,"3706",AHOS,231.164191780821994,279.189999999999998,8.524062283399504,47.410702971158393
"8591427","6238",,,"Zürich, Werd",Zürich,Tram,"&nbsp;","2",,"110","5",Tram,"9,14","2682185","1247430","135","142",1329.637945205480037,1441.271452054789961,1602.820756972110075,1712.977450199199893,"6238",WERE,2770.909397260269998,3315.798207171309969,8.526795003096630,47.372583143956426
"8590766","1763",,,"Rümlang, Oberdorf",Rümlang,Bus,"&nbsp;","0",,"121","2",Bus,"742,795,N6","2682322","1256258","747","769",0.086904109589041,0.129643835616438,0.000000000000000,0.000000000000000,"1763",ORUE07,0.216547945205479,0.000000000000000,8.530234607202411,47.451958723584397
"8591388","2612",,,"Zürich, Sunnau",Zürich,Bus,"&nbsp;","0",,"110","2",Bus,"184,185,N12","2682468","1242375","255","266",156.933671232877003,165.066739726027009,172.270000000000010,184.000000000000000,"2612",SUNN,322.000410958904013,356.269999999999982,8.529611117905690,47.327085886088369
"8591059","199",,,"Zürich, Bahnhof Enge/Bederstr.",Zürich,"Bus,Tram","&nbsp;","2",,"110","3",Bus Tram,"5,13,17,200,210,444,445,N12","2682474","1246541","251","262",4614.687150684930202,4602.876986301370380,5787.335896414339913,5766.639760956179998,"199",BEDE,9217.564136986300582,11553.975657370499903,8.530457248577427,47.364551903216743
"8591111","649",,,"Zürich, Dangelstrasse",Zürich,Bus,"&nbsp;","0",,"110","2",Bus,"184,185,N12","2682483","1243204","254","265",132.400986301370011,278.062438356164023,151.780000000000001,312.149999999999977,"649",DANG,410.463424657534006,463.930000000000007,8.529962040856557,47.334539624498689
"8591088","3449",,,"Zürich, Birchstrasse",Zürich,Bus,"&nbsp;","0",,"110","2",Bus,"80","2682806","1251938","89","94",321.114438356163987,431.610958904110021,405.572788844621982,580.335219123506022,"3449",BIRC,752.725397260274008,985.908007968128004,8.535850811311704,47.413047316043667
"8590679","1440",,,"Kilchberg ZH, Spital",Kilchberg ZH,Bus,"&nbsp;","0",,"150","2",Bus,"162,185","2682912","1241783","662","681",110.769397260274005,134.590000000000003,135.849999999999994,167.349999999999994,"1440",KSPI,245.359397260273994,303.199999999999989,8.535374666469970,47.321706059023171
"8591144","896",,,"Zürich, Friedhof Schwandenholz",Zürich,Bus,"&nbsp;","0",,"110","2",Bus,"40","2682932","1252863","296","307",77.821232876712301,75.717287671232896,92.650000000000006,90.430000000000007,"896",FSWA,153.538520547945012,183.080000000000013,8.537691820698468,47.421350218624944
"8591335","2158",,,"Zürich, Schaffhauserplatz",Zürich,"Bus,Tram,Trolleybus","&nbsp;","2",,"110","3",Bus Tram,"7,11,14,15,33,N6","2683055","1249565","103","109",8375.595839999999953,8330.825774794520839,9791.721759362550074,9742.440987251000479,"2158",SPLA,16706.421614794500783,19534.162746613601485,8.538708994917188,47.391674869137383
"8591314","2045",,,"Zürich, Regensbergbrücke",Zürich,"Bus,Tram","&nbsp;","2",,"110","3",Bus Tram,"11,61,62","2683071","1251472","56","61",1583.410356164379891,1746.179068493149998,1915.158406374499918,2100.404940239040116,"2045",REGB,3329.589424657529889,4015.563346613540034,8.539275148827912,47.408823073915819
"8591357","2834",,,"Zürich, Seerose",Zürich,Bus,"&nbsp;","0",,"110","2",Bus,"161,165,N15","2683094","1243699","278","289",237.390328767123009,200.139698630136991,264.829999999999984,224.270000000000010,"2834",SEER,437.530027397260028,489.100000000000023,8.538136914714876,47.338914685730344
"8594253","6781",,,"Kilchberg ZH, Emilienheim",Kilchberg ZH,Bus,"&nbsp;","0",,"150","2",Bus,"163","2683110","1242620","712","734",5.834356164383560,0.999780821917808,7.900000000000000,1.400000000000000,"6781",KEMI,6.834136986301370,9.300000000000001,8.538148563567288,47.329208702923061
"8594252","6782",,,"Kilchberg ZH, Breitloo",Kilchberg ZH,Bus,"&nbsp;","0",,"150","2",Bus,"163","2683212","1242286","713","735",9.019479452054791,0.533397260273973,11.730000000000000,0.670000000000000,"6782",KBRE,9.552876712328761,12.400000000000000,8.539435836726858,47.326192013144365
"8591207","1303",,,"Zürich, Im Ebnet",Zürich,Bus,"&nbsp;","0",,"110","2",Bus,"742,N6","2683372","1253998","743","765",0.142465753424658,0.675287671232877,0.000000000000000,0.000000000000000,"1303",IEBN,0.817753424657535,0.000000000000000,8.543734029723581,47.431501948115766
"8590675","1018",,,"Kilchberg ZH, Gottlieb-Binder",Kilchberg ZH,Bus,"&nbsp;","0",,"150","2",Bus,"162,163","2683474","1241932","704","726",12.199649561643801,65.575068493150695,16.124590000000001,87.900000000000006,"1018",GOBI,77.774718054794505,104.024590000000003,8.542835479614972,47.322975206147703
"8590686","2239",,,"Kilchberg ZH, Schlimbergstr.",Kilchberg ZH,Bus,"&nbsp;","0",,"150","2",Bus,"163","2683484","1242132","714","736",2.493047808219180,0.419507342465753,3.324950000000000,0.585180000000000,"2239",SLIM,2.912555150684930,3.910130000000000,8.543004975039620,47.324772640536587
"8594255","6776",,,"Zürich, Schanzackerstrasse",Zürich,Bus,"&nbsp;","0",,"110","2",Bus,"39","2683713","1249613","648","667",1.584986301369860,4.994438356164380,1.520000000000000,5.470000000000000,"6776",SANZ,6.579424657534240,6.990000000000000,8.547432195555396,47.392023255572120
"8591048","128",,,"Zürich, Ausserdorfstrasse",Zürich,Bus,"&nbsp;","0",,"110","2",Bus,"75,742,N6","2683747","1253226","315","327",350.044904109589027,427.488767123288028,398.350557768923977,479.974262948207013,"128",AUSS,777.533671232877055,878.324820717131047,8.548559324271896,47.424511589498771
"8576195","1845",,,"Zürich, Opernhaus",Zürich,"Bus,Tram","&nbsp;","2",,"110","3",Bus Tram,"2,4,912,916,N18","2683761","1246666","18","21",7622.771369863009568,8190.708767123290272,8941.507131474099879,9653.201115537849546,"1845",OPER,15813.480136986299840,18594.708247011898493,8.547516327471181,47.365513765308613
"8503578","2570",,,"Birmensdorf ZH, Sternen/WSL",Birmensdorf ZH,Bus,"&nbsp;","0",,"154","2",Bus,"220,350,N14","2676874","1245969","717","739",0.022794520547945,1.473095890410960,0.000000000000000,0.000000000000000,"2570",BIRMSTE,1.495890410958910,0.000000000000000,8.456232085578760,47.360084572191859
"8591284","1698",,,"Zürich, Neeserweg",Zürich,Bus,"&nbsp;","0",,"110","2",Bus,"35","2678225","1249379","618","637",111.997835616437996,107.575397260274002,132.050000000000011,124.680000000000007,"1698",NEES,219.573232876712012,256.730000000000018,8.474709584251244,47.390593361088960
"8591361","2366",,,"Zürich, Seidelhof",Zürich,"Bus,Trolleybus","&nbsp;","0",,"110","2",Bus,"31,N2","2678903","1249536","355","367",332.992159452054977,398.124982739726022,386.540431075696972,468.121986852589998,"2366",SEID,731.117142191780999,854.662417928287027,8.483716281666625,47.391924469460015
"8591036","47",,,"Zürich, Albisrieden",Zürich,"Bus,Tram","&nbsp;","2",,"110","3",Bus Tram,"3,80,N13","2679010","1247587","70","75",1352.939068493149989,1445.545150684929922,1508.594183266930031,1603.848366533859917,"47",ALBR,2798.484219178079911,3112.442549800789948,8.484789233603991,47.374383444160429
"8591167","1041",,,"Zürich, Grünaustrasse",Zürich,"Bus,Tram","&nbsp;","2",,"110","3",Bus Tram,"17,78,N13","2679313","1249909","226","236",1002.068109589039977,1000.391972602739997,1160.342709163350037,1150.032470119519985,"1041",GRUN,2002.460082191779975,2310.375179282869794,8.489212331891322,47.395229770536083
"8591057","5001",,,"Zürich, Bahnhof Altstetten N",Zürich,"Bus,Tram","&nbsp;","2",,"110","3",Bus Tram,"4,304,307,308,485","2679370","1249558","173","181",3725.564191780819783,3586.217315068489825,4537.985856573700403,4263.946135458169920,"5001",BALN,7311.781506849310063,8801.931992031870323,8.489904987662568,47.392066222884267
"8591222","1364",,,"Zürich, Kappeli",Zürich,"Bus,Tram","&nbsp;","2",,"110","3",Bus Tram,"2,83,89","2679756","1248796","217","226",3553.244191780820074,3621.655698630139796,4611.168486055779795,4704.286095617530009,"1364",KAPP,7174.899890410960325,9315.454581673309804,8.494881219235006,47.385166629361059
"8591223","3138",,,"Zürich, Kappenbühlweg",Zürich,Bus,"&nbsp;","0",,"110","2",Bus,"38","2679983","1250778","677","696",91.946246575342499,53.864191780821898,104.219999999999999,62.170000000000002,"3138",KABU,145.810438356164013,166.389999999999986,8.498241560322301,47.402963993612126
"8591243","1503",,,"Zürich, Langgrütstrasse",Zürich,Bus,"&nbsp;","0",,"110","2",Bus,"67","2680240","1247532","38","43",397.801643835616005,377.479698630137023,458.680000000000007,433.089999999999975,"1503",LANG,775.281342465753028,891.769999999999982,8.501063715531400,47.373740179331818
"8591150","903",,,"Zürich, Friesenberghalde",Zürich,Bus,"&nbsp;","0",,"110","2",Bus,"73","2680360","1246130","682","701",29.052219178082201,77.765506849315102,31.100000000000001,88.450000000000003,"903",FRIH,106.817726027397001,119.549999999999997,8.502400784645152,47.361116741271225
"8591252","1548",,,"Zürich, Letzigrund",Zürich,Tram,"&nbsp;","2",,"110","5",Tram,"2","2680430","1248368","215","224",1425.459753424659993,1486.377780821919941,1555.241633466140001,1550.117171314740062,"1548",LETG,2911.837534246580162,3105.358804780879836,8.503729382169190,47.381235514845230
"8576262","2968",,,"Zürich, Zehntenhausplatz",Zürich,"Bus,Trolleybus","&nbsp;","0",,"110","2",Bus,"32,37,61,62,491,N1","2680579","1252587","61","66",2983.879671232879900,3258.208219178080071,3436.619362549799916,3747.209561752989885,"2968",ZEHN,6242.087890410960426,7183.828924302790256,8.506462509096201,47.419160262447825
"8591054","3021",,,"Zürich, Bahnhof Affoltern",Zürich,Bus,"&nbsp;","0",,"110","2",Bus,"37,61,62,N1","2680648","1252813","62","67",1050.460082191779975,1065.854712328769892,1218.584980079680008,1214.029203187250005,"3021",BAFF,2116.314794520550095,2432.614183266930013,8.507417576915614,47.421184298615330
"8591122","735",,,"Zürich, ETH Hönggerberg",Zürich,Bus,"&nbsp;","0",,"110","2",Bus,"37,69,80,N8","2680689","1251423","83","88",3995.658767123290090,4314.456767123289865,5075.453904382469773,5492.088605577690032,"735",ETHH,8310.115534246580864,10567.542509960199823,8.507709920258364,47.408678577063228
"8591236","1446",,,"Zürich, Altes Krematorium",Zürich,"Bus,Tram,Trolleybus","&nbsp;","2",,"110","3",Bus Tram,"3,33,72,83,N14","2680748","1247991","160","167",1109.489592054789910,1168.079856438359911,1262.090482470119923,1328.718197609560093,"1446",AKRE,2277.569448493150048,2590.808680079680016,8.507871995732568,47.377806104475489
"8591045","3151",,,"Zürich, Appenzellerstrasse",Zürich,Bus,"&nbsp;","0",,"110","2",Bus,"38","2680841","1250339","675","694",65.004712328767098,69.139424657534207,78.459999999999994,80.049999999999997,"3151",APPE,134.144136986300992,158.509999999999991,8.509527600214547,47.398911158173533
"8591153","914",,,"Zürich, Fronwald",Zürich,Bus,"&nbsp;","0",,"110","2",Bus,"62,E,N1","2680845","1252902","63","68",196.940575342465991,152.123835616437987,225.653027888445990,171.630438247011995,"914",FRON,349.064410958903977,397.283466135458013,8.510044111802308,47.421960540085522
"8591226","1379",,,"Zürich, Kempfhofsteig",Zürich,"Bus,Trolleybus","&nbsp;","0",,"110","2",Bus,"46,N8","2680868","1250179","529","546",162.804520547945003,196.006630136985990,183.407609561752992,218.674900398406010,"1379",KEMP,358.811150684931022,402.082509960158973,8.509856293895224,47.397468907378766
"8591182","1143",,,"Zürich, Hegianwandweg",Zürich,"Bus,Trolleybus","&nbsp;","0",,"110","2",Bus,"32,89,N5","2680941","1245641","414","426",693.457506849314996,912.698465753425012,796.271195219123001,1054.387490039840031,"1143",HEGA,1606.155972602739894,1850.658685258960077,8.510002520143331,47.356647847123661
"8591407","2737",,,"Zürich, Unteraffoltern",Zürich,Bus,"&nbsp;","0",,"110","2",Bus,"62,E,N1","2680977","1253196","64","69",442.385013698630019,387.480602739726010,516.301474103585974,450.650756972111992,"2737",UAFF,829.865616438356028,966.952231075698023,8.511846542660324,47.424588341448320
"8591121","800",,,"Zürich, Eschergutweg",Zürich,"Bus,Tram","&nbsp;","2",,"110","3",Bus Tram,"13,N4","2681035","1250048","240","251",366.814684931506974,429.616630136985975,409.189641434263024,467.412709163347017,"800",EGUT,796.431315068492950,876.602350597609984,8.512044476182028,47.396270253618916
"8591083","489",,,"Zürich, Grubenstrasse",Zürich,Bus,"&nbsp;","0",,"110","2",Bus,"76","2681058","1246331","474","486",17.273479452054801,107.810520547945003,24.980000000000000,152.840000000000003,"489",GRUB,125.084000000000003,177.819999999999993,8.511675879834446,47.362838954149403
"8502572","1012",,,"Zürich, Goldbrunnenplatz",Zürich,"Bus,Tram,Trolleybus","&nbsp;","2",,"110","3",Bus Tram,"9,14,32,67,215,220,235,236,245,350,N5","2681214","1247159","41","46",6845.489999999999782,6644.506575342469660,7743.872231075700256,7494.942310756970073,"1012",GOLP,13489.996575342500364,15238.814541832700343,8.513890941716035,47.370266312922467
"8591370","2398",,,"Zürich, Sihlweidstrasse",Zürich,Bus,"&nbsp;","0",,"110","2",Bus,"70,N12","2681339","1242285","604","623",639.922849315067992,765.204301369862947,745.519999999999982,894.470000000000027,"2398",SIHW,1405.127150684930029,1639.990000000000009,8.514660918754949,47.326416673698304
"8591160","1000",,,"Zürich, Glaubtenstrasse",Zürich,"Bus,Trolleybus","&nbsp;","0",,"110","2",Bus,"32,40,61,62,80,N1","2681527","1252045","59","64",2751.934082191779908,2807.560657534249913,3205.165976095619953,3268.788605577689850,"1000",GLAU,5559.494739726030275,6473.954581673309804,8.518925014023578,47.414169197641250
"8591242","1502",,,"Zürich, Langensteinenstrasse",Zürich,Bus,"&nbsp;","0",,"110","2",Bus,"39","2683887","1249668","641","660",20.398136986301399,41.997205479452099,22.320000000000000,49.979999999999997,"1502",LAST,62.395342465753501,72.299999999999997,8.549746891774856,47.392495751543123
